[
    {
        "id": 96,
        "lat": "",
        "lng": "",
        "name": "1St 3 Mile Opening",
        "region": "QLD",
        "station_id": "QLD_TP226",
        "timezone": "Australia/Brisbane",
        "tz": "AEST"
    },
    {
        "id": 191,
        "lat": 37.42324456842828,
        "lng": -121.914894049727,
        "name": "Abbot Point",
        "region": "QLD",
        "station_id": "QLD_TP001",
        "timezone": "Australia/Brisbane",
        "tz": "AEST"
    },
    {
        "id": 561,
        "lat": -13.2377597,
        "lng": 131.1061792,
        "name": "Adelaide River",
        "region": "NT",
        "station_id": "NT_TP004",
        "timezone": "Australia/Darwin",
        "tz": "ACST"
    },
    {
        "id": 332,
        "lat": 37.2868231,
        "lng": -121.908525,
        "name": "Adele I.",
        "region": "WA",
        "station_id": "WA_TP125",
        "timezone": "Australia/Perth",
        "tz": "AWST"
    },
    {
        "id": 333,
        "lat": -15.1184204,
        "lng": 128.1582923,
        "name": "Adolphus I.",
        "region": "WA",
        "station_id": "WA_TP114",
        "timezone": "Australia/Perth",
        "tz": "AWST"
    },
    {
        "id": 415,
        "lat": 37.887296,
        "lng": -122.298057,
        "name": "Albany",
        "region": "WA",
        "station_id": "WA_TP001",
        "timezone": "Australia/Perth",
        "tz": "AWST"
    },
    {
        "id": 79,
        "lat": -27.94778087735968,
        "lng": 153.1325563996681,
        "name": "Albert River Mouth",
        "region": "QLD",
        "station_id": "QLD_TP139",
        "timezone": "Australia/Brisbane",
        "tz": "AEST"
    },
    {
        "id": 192,
        "lat": -18.7721664,
        "lng": 146.7178745,
        "name": "Albino Rock",
        "region": "QLD",
        "station_id": "QLD_TP037",
        "timezone": "Australia/Brisbane",
        "tz": "AEST"
    },
    {
        "id": 131,
        "lat": "",
        "lng": "",
        "name": "Alert Patches",
        "region": "QLD",
        "station_id": "QLD_TP115",
        "timezone": "Australia/Brisbane",
        "tz": "AEST"
    },
    {
        "id": 651,
        "lat": -10.3157027,
        "lng": 150.4587795,
        "name": "Alotau (Milne Bay)",
        "region": "PNG",
        "station_id": "INT_TP010",
        "timezone": "Pacific/Port_Moresby",
        "tz": "PGT"
    },
    {
        "id": 132,
        "lat": "",
        "lng": "",
        "name": "Alpha Rock",
        "region": "QLD",
        "station_id": "QLD_TP246",
        "timezone": "Australia/Brisbane",
        "tz": "AEST"
    },
    {
        "id": 489,
        "lat": "",
        "lng": "",
        "name": "Althorpe I.",
        "region": "SA",
        "station_id": "SA_TP058",
        "timezone": "Australia/Adelaide",
        "tz": "ACDT"
    },
    {
        "id": 38,
        "lat": -37.8693775,
        "lng": 144.8303135,
        "name": "Altona",
        "region": "VIC",
        "station_id": "VIC_TP014",
        "timezone": "Australia/Melbourne",
        "tz": "AEDT"
    },
    {
        "id": 463,
        "lat": 38.5787377,
        "lng": -121.3449546,
        "name": "American River",
        "region": "SA",
        "station_id": "SA_TP067",
        "timezone": "Australia/Adelaide",
        "tz": "ACDT"
    },
    {
        "id": 652,
        "lat": "",
        "lng": "",
        "name": "Anewa Bay",
        "region": "PNG",
        "station_id": "INT_TP011",
        "timezone": "Pacific/Port_Moresby",
        "tz": "PGT"
    },
    {
        "id": 562,
        "lat": 3.9930633,
        "lng": 100.9959814,
        "name": "Anson Bay",
        "region": "NT",
        "station_id": "NT_TP049",
        "timezone": "Australia/Darwin",
        "tz": "ACST"
    },
    {
        "id": 653,
        "lat": -13.8327481,
        "lng": -171.7546501,
        "name": "Apia",
        "region": "WSM",
        "station_id": "INT_TP022",
        "timezone": "Pacific/Apia",
        "tz": "WSDT"
    },
    {
        "id": 39,
        "lat": -38.7569431,
        "lng": 143.6694863,
        "name": "Apollo Bay",
        "region": "VIC",
        "station_id": "VIC_TP038",
        "timezone": "Australia/Melbourne",
        "tz": "AEDT"
    },
    {
        "id": 563,
        "lat": -9.3130847,
        "lng": 137.1930666,
        "name": "Arafura Sea",
        "region": "NT",
        "station_id": "NT_TP081",
        "timezone": "Australia/Darwin",
        "tz": "ACST"
    },
    {
        "id": 80,
        "lat": -13.4371165,
        "lng": 141.6888838,
        "name": "Archer River",
        "region": "QLD",
        "station_id": "QLD_TP038",
        "timezone": "Australia/Brisbane",
        "tz": "AEST"
    },
    {
        "id": 490,
        "lat": -34.4230838,
        "lng": 137.9169264,
        "name": "Ardrossan",
        "region": "SA",
        "station_id": "SA_TP054",
        "timezone": "Australia/Adelaide",
        "tz": "ACDT"
    },
    {
        "id": 491,
        "lat": -33.9163158,
        "lng": 136.5733802,
        "name": "Arno Bay",
        "region": "SA",
        "station_id": "SA_TP009",
        "timezone": "Australia/Adelaide",
        "tz": "ACDT"
    },
    {
        "id": 386,
        "lat": 37.2368506,
        "lng": -121.8134114,
        "name": "Ashburton North",
        "region": "WA",
        "station_id": "WA_TP025",
        "timezone": "Australia/Perth",
        "tz": "AWST"
    },
    {
        "id": 334,
        "lat": -12.24321548147898,
        "lng": 123.0337847255321,
        "name": "Ashmore Reef",
        "region": "WA",
        "station_id": "WA_TP026",
        "timezone": "Australia/Perth",
        "tz": "AWST"
    },
    {
        "id": 133,
        "lat": -22.575197,
        "lng": 144.0847926,
        "name": "Ashmore Reef (Qld)",
        "region": "QLD",
        "station_id": "QLD_TP268",
        "timezone": "Australia/Brisbane",
        "tz": "AEST"
    },
    {
        "id": 564,
        "lat": -11.7117622,
        "lng": 133.2193243,
        "name": "Aurari Bay",
        "region": "NT",
        "station_id": "NT_TP087",
        "timezone": "Australia/Darwin",
        "tz": "ACST"
    },
    {
        "id": 134,
        "lat": -9.9531181,
        "lng": 143.2901246,
        "name": "Aureed I.",
        "region": "QLD",
        "station_id": "QLD_TP269",
        "timezone": "Australia/Brisbane",
        "tz": "AEST"
    },
    {
        "id": 565,
        "lat": 37.296147,
        "lng": -122.0395477,
        "name": "Auster Point",
        "region": "NT",
        "station_id": "NT_TP005",
        "timezone": "Australia/Darwin",
        "tz": "ACST"
    },
    {
        "id": 387,
        "lat": -22.0971773,
        "lng": 114.0574353,
        "name": "Badjirrajirra",
        "region": "WA",
        "station_id": "WA_TP027",
        "timezone": "Australia/Perth",
        "tz": "AWST"
    },
    {
        "id": 135,
        "lat": -10.116416,
        "lng": 142.1275481,
        "name": "Badu I.",
        "region": "QLD",
        "station_id": "QLD_TP255",
        "timezone": "Australia/Brisbane",
        "tz": "AEST"
    },
    {
        "id": 196,
        "lat": 36.8789789,
        "lng": -83.1904519,
        "name": "Bailay Creek",
        "region": "QLD",
        "station_id": "QLD_TP212",
        "timezone": "Australia/Brisbane",
        "tz": "AEST"
    },
    {
        "id": 0,
        "lat": -28.8600168,
        "lng": 153.5592943,
        "name": "Ballina",
        "region": "NSW",
        "station_id": "NSW_TP009",
        "timezone": "Australia/Sydney",
        "tz": "AEDT"
    },
    {
        "id": 137,
        "lat": 37.52065996963843,
        "lng": -121.96770459394976,
        "name": "Bampfield Head",
        "region": "QLD",
        "station_id": "QLD_TP251",
        "timezone": "Australia/Brisbane",
        "tz": "AEST"
    },
    {
        "id": 231,
        "lat": 37.9263737,
        "lng": -122.0844656,
        "name": "Barnett Patches",
        "region": "QLD",
        "station_id": "QLD_TP199",
        "timezone": "Australia/Brisbane",
        "tz": "AEST"
    },
    {
        "id": 40,
        "lat": "",
        "lng": "",
        "name": "Barracouta Platform",
        "region": "VIC",
        "station_id": "VIC_TP015",
        "timezone": "Australia/Melbourne",
        "tz": "AEDT"
    },
    {
        "id": 388,
        "lat": 46.483172,
        "lng": -82.1017855,
        "name": "Barrow Island (Tanker Mooring)",
        "region": "WA",
        "station_id": "WA_TP002",
        "timezone": "Australia/Perth",
        "tz": "AWST"
    },
    {
        "id": 389,
        "lat": 46.483172,
        "lng": -82.1017855,
        "name": "Barrow Island (Wapet Landing)",
        "region": "WA",
        "station_id": "WA_TP003",
        "timezone": "Australia/Perth",
        "tz": "AWST"
    },
    {
        "id": 41,
        "lat": -38.2785596,
        "lng": 144.4922806,
        "name": "Barwon Heads",
        "region": "VIC",
        "station_id": "VIC_TP016",
        "timezone": "Australia/Melbourne",
        "tz": "AEDT"
    },
    {
        "id": 523,
        "lat": 35.155113,
        "lng": -90.052262,
        "name": "Bass Pyramid",
        "region": "TAS",
        "station_id": "TAS_TP030",
        "timezone": "Australia/Hobart",
        "tz": "AEDT"
    },
    {
        "id": 335,
        "lat": 38.29598462942344,
        "lng": -122.46648034686753,
        "name": "Baudin I.",
        "region": "WA",
        "station_id": "WA_TP132",
        "timezone": "Australia/Perth",
        "tz": "AWST"
    },
    {
        "id": 464,
        "lat": -37.4821819,
        "lng": 140.0145676,
        "name": "Beachport",
        "region": "SA",
        "station_id": "SA_TP010",
        "timezone": "Australia/Adelaide",
        "tz": "ACDT"
    },
    {
        "id": 566,
        "lat": "",
        "lng": "",
        "name": "Beagle A",
        "region": "NT",
        "station_id": "NT_TP059",
        "timezone": "Australia/Darwin",
        "tz": "ACST"
    },
    {
        "id": 193,
        "lat": 39.730669,
        "lng": -84.068853,
        "name": "Beaver Reef",
        "region": "QLD",
        "station_id": "QLD_TP039",
        "timezone": "Australia/Brisbane",
        "tz": "AEST"
    },
    {
        "id": 336,
        "lat": 37.3500292,
        "lng": -122.0619412,
        "name": "Bedford I.",
        "region": "WA",
        "station_id": "WA_TP123",
        "timezone": "Australia/Perth",
        "tz": "AWST"
    },
    {
        "id": 337,
        "lat": -19.5888777,
        "lng": 119.0994098,
        "name": "Bedout Island",
        "region": "WA",
        "station_id": "WA_TP028",
        "timezone": "Australia/Perth",
        "tz": "AWST"
    },
    {
        "id": 524,
        "lat": 47.4715082,
        "lng": -116.8400144,
        "name": "Bell Bay",
        "region": "TAS",
        "station_id": "TAS_TP016",
        "timezone": "Australia/Hobart",
        "tz": "AEDT"
    },
    {
        "id": 243,
        "lat": 16.061417,
        "lng": -86.9737485,
        "name": "Bell Cay",
        "region": "QLD",
        "station_id": "QLD_TP040",
        "timezone": "Australia/Brisbane",
        "tz": "AEST"
    },
    {
        "id": 1,
        "lat": -36.427271,
        "lng": 150.0764311,
        "name": "Bermagui",
        "region": "NSW",
        "station_id": "NSW_TP010",
        "timezone": "Australia/Sydney",
        "tz": "AEDT"
    },
    {
        "id": 525,
        "lat": -41.874693,
        "lng": 148.3043145,
        "name": "Bicheno",
        "region": "TAS",
        "station_id": "TAS_TP028",
        "timezone": "Australia/Hobart",
        "tz": "AEDT"
    },
    {
        "id": 526,
        "lat": -40.2658491,
        "lng": 148.0982724,
        "name": "Big River Cove",
        "region": "TAS",
        "station_id": "TAS_TP031",
        "timezone": "Australia/Hobart",
        "tz": "AEDT"
    },
    {
        "id": 244,
        "lat": 39.0066197,
        "lng": -120.7432443,
        "name": "Blacksmith I.",
        "region": "QLD",
        "station_id": "QLD_TP182",
        "timezone": "Australia/Brisbane",
        "tz": "AEST"
    },
    {
        "id": 465,
        "lat": 37.32238704273456,
        "lng": -122.04038761998505,
        "name": "Blanche Port",
        "region": "SA",
        "station_id": "SA_TP061",
        "timezone": "Australia/Adelaide",
        "tz": "ACDT"
    },
    {
        "id": 287,
        "lat": -34.5050213,
        "lng": 136.2881615,
        "name": "Bn M2, Moreton Bay",
        "region": "QLD",
        "station_id": "QLD_TP148",
        "timezone": "Australia/Brisbane",
        "tz": "AEST"
    },
    {
        "id": 654,
        "lat": 7.1310514,
        "lng": 122.2689334,
        "name": "Bobo Island",
        "region": "PNG",
        "station_id": "INT_TP028",
        "timezone": "Pacific/Port_Moresby",
        "tz": "PGT"
    },
    {
        "id": 655,
        "lat": 30.8424089,
        "lng": -87.3244203,
        "name": "Bogia",
        "region": "PNG",
        "station_id": "INT_TP029",
        "timezone": "Pacific/Port_Moresby",
        "tz": "PGT"
    },
    {
        "id": 656,
        "lat": 49.82757059999999,
        "lng": 19.0444873,
        "name": "Boia Boia Waga",
        "region": "PNG",
        "station_id": "INT_TP030",
        "timezone": "Pacific/Port_Moresby",
        "tz": "PGT"
    },
    {
        "id": 338,
        "lat": -14.4505782,
        "lng": 129.1783163,
        "name": "Bonaparte Gulf",
        "region": "WA",
        "station_id": "WA_TP029",
        "timezone": "Australia/Perth",
        "tz": "AWST"
    },
    {
        "id": 136,
        "lat": 11.3220916,
        "lng": -60.558479,
        "name": "Booby Island",
        "region": "QLD",
        "station_id": "QLD_TP026",
        "timezone": "Australia/Brisbane",
        "tz": "AEST"
    },
    {
        "id": 288,
        "lat": 37.53299653235905,
        "lng": -121.98324120321749,
        "name": "Boonlye Point",
        "region": "QLD",
        "station_id": "QLD_TP152",
        "timezone": "Australia/Brisbane",
        "tz": "AEST"
    },
    {
        "id": 245,
        "lat": 37.3617845,
        "lng": -122.0997514,
        "name": "Border I.",
        "region": "QLD",
        "station_id": "QLD_TP190",
        "timezone": "Australia/Brisbane",
        "tz": "AEST"
    },
    {
        "id": 2,
        "lat": -33.9668416,
        "lng": 151.2025306,
        "name": "Botany Bay",
        "region": "NSW",
        "station_id": "NSW_TP001",
        "timezone": "Australia/Sydney",
        "tz": "AEDT"
    },
    {
        "id": 42,
        "lat": -38.2697704,
        "lng": 145.4018285,
        "name": "Bouchier Channel",
        "region": "VIC",
        "station_id": "VIC_TP017",
        "timezone": "Australia/Melbourne",
        "tz": "AEDT"
    },
    {
        "id": 81,
        "lat": -16.6588203,
        "lng": 139.8712305,
        "name": "Bountiful Island",
        "region": "QLD",
        "station_id": "QLD_TP045",
        "timezone": "Australia/Brisbane",
        "tz": "AEST"
    },
    {
        "id": 246,
        "lat": -20.0131968,
        "lng": 148.2443002,
        "name": "Bowen",
        "region": "QLD",
        "station_id": "QLD_TP002",
        "timezone": "Australia/Brisbane",
        "tz": "AEST"
    },
    {
        "id": 82,
        "lat": 37.4565037,
        "lng": -121.9062614,
        "name": "Boyd Point",
        "region": "QLD",
        "station_id": "QLD_TP046",
        "timezone": "Australia/Brisbane",
        "tz": "AEST"
    },
    {
        "id": 138,
        "lat": -9.1417921,
        "lng": 143.8756827,
        "name": "Bramble Cay",
        "region": "QLD",
        "station_id": "QLD_TP277",
        "timezone": "Australia/Brisbane",
        "tz": "AEST"
    },
    {
        "id": 527,
        "lat": 37.372669740638074,
        "lng": -122.0158548115565,
        "name": "Bramble Cove",
        "region": "TAS",
        "station_id": "TAS_TP017",
        "timezone": "Australia/Hobart",
        "tz": "AEDT"
    },
    {
        "id": 289,
        "lat": "",
        "lng": "",
        "name": "Breaksea Spit",
        "region": "QLD",
        "station_id": "QLD_TP159",
        "timezone": "Australia/Brisbane",
        "tz": "AEST"
    },
    {
        "id": 416,
        "lat": -34.3947096,
        "lng": 119.3821639,
        "name": "Bremer Bay",
        "region": "WA",
        "station_id": "WA_TP086",
        "timezone": "Australia/Perth",
        "tz": "AWST"
    },
    {
        "id": 290,
        "lat": -27.070775,
        "lng": 153.1451101,
        "name": "Bribie I., Bongaree",
        "region": "QLD",
        "station_id": "QLD_TP147",
        "timezone": "Australia/Brisbane",
        "tz": "AEST"
    },
    {
        "id": 492,
        "lat": 50.8209222,
        "lng": -0.140021,
        "name": "Brighton",
        "region": "SA",
        "station_id": "SA_TP056",
        "timezone": "Australia/Adelaide",
        "tz": "ACDT"
    },
    {
        "id": 291,
        "lat": 37.68669,
        "lng": -122.402223,
        "name": "Brisbane Bar",
        "region": "QLD",
        "station_id": "QLD_TP003",
        "timezone": "Australia/Brisbane",
        "tz": "AEST"
    },
    {
        "id": 292,
        "lat": -27.4714481,
        "lng": 153.0303069,
        "name": "Brisbane Port Office",
        "region": "QLD",
        "station_id": "QLD_TP138",
        "timezone": "Australia/Brisbane",
        "tz": "AEST"
    },
    {
        "id": 194,
        "lat": -18.22888083832187,
        "lng": 146.7300532548505,
        "name": "Britomart Reef",
        "region": "QLD",
        "station_id": "QLD_TP047",
        "timezone": "Australia/Brisbane",
        "tz": "AEST"
    },
    {
        "id": 339,
        "lat": -17.9599097,
        "lng": 122.2389384,
        "name": "Broome",
        "region": "WA",
        "station_id": "WA_TP004",
        "timezone": "Australia/Perth",
        "tz": "AWST"
    },
    {
        "id": 3,
        "lat": 37.5380483,
        "lng": -122.2663032,
        "name": "Broughton I.",
        "region": "NSW",
        "station_id": "NSW_TP037",
        "timezone": "Australia/Sydney",
        "tz": "AEDT"
    },
    {
        "id": 340,
        "lat": -14.109421,
        "lng": 123.5483078,
        "name": "Browse I.",
        "region": "WA",
        "station_id": "WA_TP126",
        "timezone": "Australia/Perth",
        "tz": "AWST"
    },
    {
        "id": 4,
        "lat": -28.5401823,
        "lng": 153.5479684,
        "name": "Brunswick Heads",
        "region": "NSW",
        "station_id": "NSW_TP016",
        "timezone": "Australia/Sydney",
        "tz": "AEDT"
    },
    {
        "id": 247,
        "lat": -20.10263324622833,
        "lng": 150.3153230232724,
        "name": "Bugatti Reef",
        "region": "QLD",
        "station_id": "QLD_TP004",
        "timezone": "Australia/Brisbane",
        "tz": "AEST"
    },
    {
        "id": 657,
        "lat": "",
        "lng": "",
        "name": "Bulavai Point",
        "region": "PNG",
        "station_id": "INT_TP032",
        "timezone": "",
        "tz": "PGT"
    },
    {
        "id": 417,
        "lat": -33.3270558,
        "lng": 115.6391391,
        "name": "Bunbury",
        "region": "WA",
        "station_id": "WA_TP005",
        "timezone": "Australia/Perth",
        "tz": "AWST"
    },
    {
        "id": 293,
        "lat": -24.8795251,
        "lng": 152.3509834,
        "name": "Bundaberg (Burnett Heads)",
        "region": "QLD",
        "station_id": "QLD_TP005",
        "timezone": "Australia/Brisbane",
        "tz": "AEST"
    },
    {
        "id": 418,
        "lat": -42.6638459,
        "lng": 148.133202,
        "name": "Bunker Bay",
        "region": "WA",
        "station_id": "WA_TP090",
        "timezone": "Australia/Perth",
        "tz": "AWST"
    },
    {
        "id": 567,
        "lat": "",
        "lng": "",
        "name": "Burge Point",
        "region": "NT",
        "station_id": "NT_TP057",
        "timezone": "Australia/Darwin",
        "tz": "ACST"
    },
    {
        "id": 83,
        "lat": -17.7409386,
        "lng": 139.5479889,
        "name": "Burketown",
        "region": "QLD",
        "station_id": "QLD_TP140",
        "timezone": "Australia/Brisbane",
        "tz": "AEST"
    },
    {
        "id": 528,
        "lat": 37.549331248905794,
        "lng": -121.9380196100742,
        "name": "Burnie",
        "region": "TAS",
        "station_id": "TAS_TP001",
        "timezone": "Australia/Hobart",
        "tz": "AEDT"
    },
    {
        "id": 419,
        "lat": -33.6490892,
        "lng": 115.3538761,
        "name": "Busselton",
        "region": "WA",
        "station_id": "WA_TP082",
        "timezone": "Australia/Perth",
        "tz": "AWST"
    },
    {
        "id": 568,
        "lat": "",
        "lng": "",
        "name": "Cache Point",
        "region": "NT",
        "station_id": "NT_TP071",
        "timezone": "Australia/Darwin",
        "tz": "ACST"
    },
    {
        "id": 569,
        "lat": -12.0070973,
        "lng": 135.7201894,
        "name": "Cadell Strait",
        "region": "NT",
        "station_id": "NT_TP073",
        "timezone": "Australia/Darwin",
        "tz": "ACST"
    },
    {
        "id": 195,
        "lat": -16.9229133,
        "lng": 145.7712436,
        "name": "Cairns",
        "region": "QLD",
        "station_id": "QLD_TP006",
        "timezone": "Australia/Brisbane",
        "tz": "AEST"
    },
    {
        "id": 570,
        "lat": "",
        "lng": "",
        "name": "Calder Shoal",
        "region": "NT",
        "station_id": "NT_TP006",
        "timezone": "Australia/Darwin",
        "tz": "ACST"
    },
    {
        "id": 294,
        "lat": -26.8043999,
        "lng": 153.1254643,
        "name": "Caloundra Head",
        "region": "QLD",
        "station_id": "QLD_TP150",
        "timezone": "Australia/Brisbane",
        "tz": "AEST"
    },
    {
        "id": 5,
        "lat": -31.6480879,
        "lng": 152.7966308,
        "name": "Camden Haven",
        "region": "NSW",
        "station_id": "NSW_TP038",
        "timezone": "Australia/Sydney",
        "tz": "AEDT"
    },
    {
        "id": 6,
        "lat": 56.954626,
        "lng": -154.1319913,
        "name": "Camp Cove",
        "region": "NSW",
        "station_id": "NSW_TP011",
        "timezone": "Australia/Sydney",
        "tz": "AEDT"
    },
    {
        "id": 571,
        "lat": 40.039921,
        "lng": -91.064856,
        "name": "Camp Point",
        "region": "NT",
        "station_id": "NT_TP068",
        "timezone": "Australia/Darwin",
        "tz": "ACST"
    },
    {
        "id": 572,
        "lat": -12.35,
        "lng": 136.9666667,
        "name": "Cape Arnhem",
        "region": "NT",
        "station_id": "NT_TP007",
        "timezone": "Australia/Darwin",
        "tz": "ACST"
    },
    {
        "id": 341,
        "lat": -17.1166667,
        "lng": 122.25,
        "name": "Cape Baskerville",
        "region": "WA",
        "station_id": "WA_TP030",
        "timezone": "Australia/Perth",
        "tz": "AWST"
    },
    {
        "id": 573,
        "lat": "",
        "lng": "",
        "name": "Cape Beatrice",
        "region": "NT",
        "station_id": "NT_TP039",
        "timezone": "Australia/Darwin",
        "tz": "ACST"
    },
    {
        "id": 197,
        "lat": "",
        "lng": "",
        "name": "Cape Bedford",
        "region": "QLD",
        "station_id": "QLD_TP216",
        "timezone": "Australia/Brisbane",
        "tz": "AEST"
    },
    {
        "id": 342,
        "lat": -17.6666667,
        "lng": 122.1833333,
        "name": "Cape Boileau",
        "region": "WA",
        "station_id": "WA_TP031",
        "timezone": "Australia/Perth",
        "tz": "AWST"
    },
    {
        "id": 295,
        "lat": -23.5,
        "lng": 151.2166667,
        "name": "Cape Capricorn",
        "region": "QLD",
        "station_id": "QLD_TP164",
        "timezone": "Australia/Brisbane",
        "tz": "AEST"
    },
    {
        "id": 574,
        "lat": "",
        "lng": "",
        "name": "Cape Cockburn",
        "region": "NT",
        "station_id": "NT_TP083",
        "timezone": "Australia/Darwin",
        "tz": "ACST"
    },
    {
        "id": 575,
        "lat": 44.922911,
        "lng": -81.021299,
        "name": "Cape Crocker Offshore",
        "region": "NT",
        "station_id": "NT_TP008",
        "timezone": "Australia/Darwin",
        "tz": "ACST"
    },
    {
        "id": 420,
        "lat": -24.239679,
        "lng": 113.393501,
        "name": "Cape Cuvier",
        "region": "WA",
        "station_id": "WA_TP006",
        "timezone": "Australia/Perth",
        "tz": "AWST"
    },
    {
        "id": 658,
        "lat": "",
        "lng": "",
        "name": "Cape Deliverance",
        "region": "PNG",
        "station_id": "INT_TP033",
        "timezone": "Pacific/Port_Moresby",
        "tz": "PGT"
    },
    {
        "id": 343,
        "lat": -42.878881,
        "lng": 173.3076783,
        "name": "Cape Domett",
        "region": "WA",
        "station_id": "WA_TP032",
        "timezone": "Australia/Perth",
        "tz": "AWST"
    },
    {
        "id": 576,
        "lat": -33.9220161,
        "lng": 18.4195824,
        "name": "Cape Don",
        "region": "NT",
        "station_id": "NT_TP040",
        "timezone": "Australia/Darwin",
        "tz": "ACST"
    },
    {
        "id": 493,
        "lat": 43.563696,
        "lng": -70.2000467,
        "name": "Cape Elizabeth",
        "region": "SA",
        "station_id": "SA_TP011",
        "timezone": "Australia/Adelaide",
        "tz": "ACDT"
    },
    {
        "id": 208,
        "lat": -19.2833333,
        "lng": 147.0666667,
        "name": "Cape Ferguson",
        "region": "QLD",
        "station_id": "QLD_TP007",
        "timezone": "Australia/Brisbane",
        "tz": "AEST"
    },
    {
        "id": 198,
        "lat": 37.3720712,
        "lng": -121.8655133,
        "name": "Cape Flattery",
        "region": "QLD",
        "station_id": "QLD_TP221",
        "timezone": "Australia/Brisbane",
        "tz": "AEST"
    },
    {
        "id": 577,
        "lat": 37.4103738,
        "lng": -121.876346,
        "name": "Cape Ford",
        "region": "NT",
        "station_id": "NT_TP009",
        "timezone": "Australia/Darwin",
        "tz": "ACST"
    },
    {
        "id": 199,
        "lat": -11.9666667,
        "lng": 143.2333333,
        "name": "Cape Grenville",
        "region": "QLD",
        "station_id": "QLD_TP240",
        "timezone": "Australia/Brisbane",
        "tz": "AEST"
    },
    {
        "id": 578,
        "lat": "",
        "lng": "",
        "name": "Cape Grey",
        "region": "NT",
        "station_id": "NT_TP010",
        "timezone": "Australia/Darwin",
        "tz": "ACST"
    },
    {
        "id": 421,
        "lat": -34.2666667,
        "lng": 115.0333333,
        "name": "Cape Hamelin",
        "region": "WA",
        "station_id": "WA_TP070",
        "timezone": "Australia/Perth",
        "tz": "AWST"
    },
    {
        "id": 494,
        "lat": "",
        "lng": "",
        "name": "Cape Hardy",
        "region": "SA",
        "station_id": "SA_TP050",
        "timezone": "Australia/Adelaide",
        "tz": "ACDT"
    },
    {
        "id": 579,
        "lat": -12.0462989,
        "lng": 131.2892906,
        "name": "Cape Hotham",
        "region": "NT",
        "station_id": "NT_TP011",
        "timezone": "Australia/Darwin",
        "tz": "ACST"
    },
    {
        "id": 466,
        "lat": -36.9455482,
        "lng": 139.6998434,
        "name": "Cape Jaffa",
        "region": "SA",
        "station_id": "SA_TP012",
        "timezone": "Australia/Adelaide",
        "tz": "ACDT"
    },
    {
        "id": 467,
        "lat": -35.6091788,
        "lng": 138.1097071,
        "name": "Cape Jervis",
        "region": "SA",
        "station_id": "SA_TP013",
        "timezone": "Australia/Adelaide",
        "tz": "ACDT"
    },
    {
        "id": 390,
        "lat": -20.3583333,
        "lng": 116.8305556,
        "name": "Cape Legendre",
        "region": "WA",
        "station_id": "WA_TP035",
        "timezone": "Australia/Perth",
        "tz": "AWST"
    },
    {
        "id": 97,
        "lat": -14.1833333,
        "lng": 144.5,
        "name": "Cape Melville",
        "region": "QLD",
        "station_id": "QLD_TP050",
        "timezone": "Australia/Brisbane",
        "tz": "AEST"
    },
    {
        "id": 468,
        "lat": "",
        "lng": "",
        "name": "Cape Rabelais (Off)",
        "region": "SA",
        "station_id": "SA_TP065",
        "timezone": "Australia/Adelaide",
        "tz": "ACDT"
    },
    {
        "id": 580,
        "lat": 37.342691922721144,
        "lng": -122.08379704955097,
        "name": "Cape Scott (Off)",
        "region": "NT",
        "station_id": "NT_TP048",
        "timezone": "Australia/Darwin",
        "tz": "ACST"
    },
    {
        "id": 529,
        "lat": -42.2,
        "lng": 145.1666667,
        "name": "Cape Sorell (Off)",
        "region": "TAS",
        "station_id": "TAS_TP041",
        "timezone": "Australia/Hobart",
        "tz": "AEDT"
    },
    {
        "id": 581,
        "lat": -11.1666667,
        "lng": 130.3833333,
        "name": "Cape Van Dieman",
        "region": "NT",
        "station_id": "NT_TP069",
        "timezone": "Australia/Darwin",
        "tz": "ACST"
    },
    {
        "id": 344,
        "lat": -14.2452778,
        "lng": 125.6008333,
        "name": "Cape Voltaire (Krait Bay)",
        "region": "WA",
        "station_id": "WA_TP007",
        "timezone": "Australia/Perth",
        "tz": "AWST"
    },
    {
        "id": 582,
        "lat": -11.9768288,
        "lng": 135.6952715,
        "name": "Cape Wessel",
        "region": "NT",
        "station_id": "NT_TP012",
        "timezone": "Australia/Darwin",
        "tz": "ACST"
    },
    {
        "id": 209,
        "lat": -18.2635998,
        "lng": 146.0236246,
        "name": "Cardwell",
        "region": "QLD",
        "station_id": "QLD_TP135",
        "timezone": "Australia/Brisbane",
        "tz": "AEST"
    },
    {
        "id": 248,
        "lat": 37.348564133495856,
        "lng": -122.02215509776333,
        "name": "Carlisle I. (Off)",
        "region": "QLD",
        "station_id": "QLD_TP177",
        "timezone": "Australia/Brisbane",
        "tz": "AEST"
    },
    {
        "id": 422,
        "lat": -24.8861369,
        "lng": 113.6578021,
        "name": "Carnarvon",
        "region": "WA",
        "station_id": "WA_TP008",
        "timezone": "Australia/Perth",
        "tz": "AWST"
    },
    {
        "id": 139,
        "lat": 34.3989241,
        "lng": -119.5183559,
        "name": "Carpentaria",
        "region": "QLD",
        "station_id": "QLD_TP253",
        "timezone": "Australia/Brisbane",
        "tz": "AEST"
    },
    {
        "id": 345,
        "lat": 41.5422139,
        "lng": -83.6032443,
        "name": "Carronade I.",
        "region": "WA",
        "station_id": "WA_TP140",
        "timezone": "Australia/Perth",
        "tz": "AWST"
    },
    {
        "id": 98,
        "lat": -14.5437098446817,
        "lng": 145.5912756085665,
        "name": "Carter Reef",
        "region": "QLD",
        "station_id": "QLD_TP218",
        "timezone": "Australia/Brisbane",
        "tz": "AEST"
    },
    {
        "id": 706,
        "lat": 41.5068163,
        "lng": -94.5192412,
        "name": "Casey",
        "region": "ATA",
        "station_id": "TAS_TP009",
        "timezone": "Antarctica/Casey",
        "tz": "AWST"
    },
    {
        "id": 346,
        "lat": -13.9436786,
        "lng": 125.6286854,
        "name": "Cassini I.",
        "region": "WA",
        "station_id": "WA_TP135",
        "timezone": "Australia/Perth",
        "tz": "AWST"
    },
    {
        "id": 583,
        "lat": 38.6927896,
        "lng": -90.5408484,
        "name": "Catfish Island",
        "region": "NT",
        "station_id": "NT_TP013",
        "timezone": "Australia/Darwin",
        "tz": "ACST"
    },
    {
        "id": 296,
        "lat": 37.444747,
        "lng": -87.144413,
        "name": "Cato Island",
        "region": "QLD",
        "station_id": "QLD_TP051",
        "timezone": "Australia/Brisbane",
        "tz": "AEST"
    },
    {
        "id": 584,
        "lat": 49.8469423,
        "lng": -126.9319606,
        "name": "Centre Island",
        "region": "NT",
        "station_id": "NT_TP014",
        "timezone": "Australia/Darwin",
        "tz": "ACST"
    },
    {
        "id": 423,
        "lat": -30.4967962,
        "lng": 115.0668464,
        "name": "Cervantes",
        "region": "WA",
        "station_id": "WA_TP095",
        "timezone": "Australia/Perth",
        "tz": "AWST"
    },
    {
        "id": 585,
        "lat": 47.1849008,
        "lng": -122.5796454,
        "name": "Chambers Bay",
        "region": "NT",
        "station_id": "NT_TP065",
        "timezone": "Australia/Darwin",
        "tz": "ACST"
    },
    {
        "id": 99,
        "lat": 55.8112594,
        "lng": -102.0697248,
        "name": "Chapman Island",
        "region": "QLD",
        "station_id": "QLD_TP052",
        "timezone": "Australia/Brisbane",
        "tz": "AEST"
    },
    {
        "id": 586,
        "lat": -12.35,
        "lng": 130.65,
        "name": "Charles Point Patches",
        "region": "NT",
        "station_id": "NT_TP036",
        "timezone": "Australia/Darwin",
        "tz": "ACST"
    },
    {
        "id": 587,
        "lat": "",
        "lng": "",
        "name": "Christine Reef",
        "region": "NT",
        "station_id": "NT_TP066",
        "timezone": "Australia/Darwin",
        "tz": "ACST"
    },
    {
        "id": 84,
        "lat": -28.1720054,
        "lng": 152.9897482,
        "name": "Christmas Creek",
        "region": "QLD",
        "station_id": "QLD_TP053",
        "timezone": "Australia/Brisbane",
        "tz": "AEST"
    },
    {
        "id": 659,
        "lat": -10.488897,
        "lng": 105.6394828,
        "name": "Christmas Island",
        "region": "CXR",
        "station_id": "WA_TP009",
        "timezone": "Indian/Christmas",
        "tz": "CXT"
    },
    {
        "id": 249,
        "lat": -20.2623244,
        "lng": 148.94293,
        "name": "Cid Harbour",
        "region": "QLD",
        "station_id": "QLD_TP188",
        "timezone": "Australia/Brisbane",
        "tz": "AEST"
    },
    {
        "id": 297,
        "lat": 32.9310168,
        "lng": -95.8713127,
        "name": "Clews Point",
        "region": "QLD",
        "station_id": "QLD_TP155",
        "timezone": "Australia/Brisbane",
        "tz": "AEST"
    },
    {
        "id": 210,
        "lat": -17.8565579,
        "lng": 146.1167899,
        "name": "Clump Point",
        "region": "QLD",
        "station_id": "QLD_TP136",
        "timezone": "Australia/Brisbane",
        "tz": "AEST"
    },
    {
        "id": 140,
        "lat": 19.7296277,
        "lng": -155.0685794,
        "name": "Coconut Island ",
        "region": "QLD",
        "station_id": "QLD_TP116",
        "timezone": "Australia/Brisbane",
        "tz": "AEST"
    },
    {
        "id": 469,
        "lat": -34.6201277,
        "lng": 135.4629917,
        "name": "Coffin Bay Entrance Beacon",
        "region": "SA",
        "station_id": "SA_TP046",
        "timezone": "Australia/Adelaide",
        "tz": "ACDT"
    },
    {
        "id": 470,
        "lat": -34.6218181,
        "lng": 135.4662684,
        "name": "Coffin Bay Jetty",
        "region": "SA",
        "station_id": "SA_TP047",
        "timezone": "Australia/Adelaide",
        "tz": "ACDT"
    },
    {
        "id": 7,
        "lat": -30.2951187,
        "lng": 153.1176695,
        "name": "Coffs Harbour",
        "region": "NSW",
        "station_id": "NSW_TP012",
        "timezone": "Australia/Sydney",
        "tz": "AEDT"
    },
    {
        "id": 530,
        "lat": -42.1257583,
        "lng": 148.2899129,
        "name": "Coles Bay",
        "region": "TAS",
        "station_id": "TAS_TP037",
        "timezone": "Australia/Hobart",
        "tz": "AEDT"
    },
    {
        "id": 100,
        "lat": "",
        "lng": "",
        "name": "Collette Reef",
        "region": "QLD",
        "station_id": "QLD_TP236",
        "timezone": "Australia/Brisbane",
        "tz": "AEST"
    },
    {
        "id": 707,
        "lat": -66.9,
        "lng": 142.666667,
        "name": "Commonwealth Bay",
        "region": "ATA",
        "station_id": "TAS_TP010",
        "timezone": "Australia/Hobart",
        "tz": "AEDT"
    },
    {
        "id": 101,
        "lat": -15.4744313,
        "lng": 145.2499594,
        "name": "Cooktown",
        "region": "QLD",
        "station_id": "QLD_TP054",
        "timezone": "Australia/Brisbane",
        "tz": "AEST"
    },
    {
        "id": 588,
        "lat": 37.23806241569894,
        "lng": -121.91862813547881,
        "name": "Copeland I.",
        "region": "NT",
        "station_id": "NT_TP082",
        "timezone": "Australia/Darwin",
        "tz": "ACST"
    },
    {
        "id": 424,
        "lat": -23.1422447,
        "lng": 113.7724159,
        "name": "Coral Bay",
        "region": "WA",
        "station_id": "WA_TP105",
        "timezone": "Australia/Perth",
        "tz": "AWST"
    },
    {
        "id": 425,
        "lat": 37.25545483067259,
        "lng": -121.82391530439713,
        "name": "Cosy Corner",
        "region": "WA",
        "station_id": "WA_TP040",
        "timezone": "Australia/Perth",
        "tz": "AWST"
    },
    {
        "id": 426,
        "lat": -33.851332,
        "lng": 115.1024694,
        "name": "Cowaramup",
        "region": "WA",
        "station_id": "WA_TP089",
        "timezone": "Australia/Perth",
        "tz": "AWST"
    },
    {
        "id": 43,
        "lat": -38.456847,
        "lng": 145.2255957,
        "name": "Cowes Jetty",
        "region": "VIC",
        "station_id": "VIC_TP018",
        "timezone": "Australia/Melbourne",
        "tz": "AEDT"
    },
    {
        "id": 220,
        "lat": -17.6959185,
        "lng": 146.1100797,
        "name": "Cowley Beach",
        "region": "QLD",
        "station_id": "QLD_TP202",
        "timezone": "Australia/Brisbane",
        "tz": "AEST"
    },
    {
        "id": 85,
        "lat": 30.3905386,
        "lng": -81.5868639,
        "name": "Crab Island",
        "region": "QLD",
        "station_id": "QLD_TP055",
        "timezone": "Australia/Brisbane",
        "tz": "AEST"
    },
    {
        "id": 251,
        "lat": -20.53302942049993,
        "lng": 150.381235064054,
        "name": "Creal Reef",
        "region": "QLD",
        "station_id": "QLD_TP056",
        "timezone": "Australia/Brisbane",
        "tz": "AEST"
    },
    {
        "id": 250,
        "lat": -20.55740889923885,
        "lng": 149.9276995788906,
        "name": "Credlin Reef",
        "region": "QLD",
        "station_id": "QLD_TP180",
        "timezone": "Australia/Brisbane",
        "tz": "AEST"
    },
    {
        "id": 102,
        "lat": "",
        "lng": "",
        "name": "Creech Reef",
        "region": "QLD",
        "station_id": "QLD_TP227",
        "timezone": "Australia/Brisbane",
        "tz": "AEST"
    },
    {
        "id": 8,
        "lat": -34.8991061,
        "lng": 150.7701803,
        "name": "Crookhaven Heads",
        "region": "NSW",
        "station_id": "NSW_TP027",
        "timezone": "Australia/Sydney",
        "tz": "AEDT"
    },
    {
        "id": 9,
        "lat": -31.8402355,
        "lng": 152.7507282,
        "name": "Crowdy Head",
        "region": "NSW",
        "station_id": "NSW_TP017",
        "timezone": "Australia/Sydney",
        "tz": "AEDT"
    },
    {
        "id": 211,
        "lat": -15.689517,
        "lng": 145.8018522,
        "name": "Cruiser Passage",
        "region": "QLD",
        "station_id": "QLD_TP057",
        "timezone": "Australia/Brisbane",
        "tz": "AEST"
    },
    {
        "id": 86,
        "lat": 37.273698,
        "lng": -121.9694094,
        "name": "Cullen Point",
        "region": "QLD",
        "station_id": "QLD_TP058",
        "timezone": "Australia/Brisbane",
        "tz": "AEST"
    },
    {
        "id": 531,
        "lat": 37.343650480896045,
        "lng": -121.99061622387134,
        "name": "Curtis I.",
        "region": "TAS",
        "station_id": "TAS_TP044",
        "timezone": "Australia/Hobart",
        "tz": "AEDT"
    },
    {
        "id": 589,
        "lat": 37.79407030458288,
        "lng": -122.21423250491836,
        "name": "Cuthbert Point",
        "region": "NT",
        "station_id": "NT_TP015",
        "timezone": "Australia/Darwin",
        "tz": "ACST"
    },
    {
        "id": 591,
        "lat": "",
        "lng": "",
        "name": "D&apos;Urville Point",
        "region": "NT",
        "station_id": "NT_TP080",
        "timezone": "Australia/Darwin",
        "tz": "ACST"
    },
    {
        "id": 391,
        "lat": -20.662133,
        "lng": 116.7107251,
        "name": "Dampier (King Bay)",
        "region": "WA",
        "station_id": "WA_TP011",
        "timezone": "Australia/Perth",
        "tz": "AWST"
    },
    {
        "id": 10,
        "lat": -33.5381063,
        "lng": 151.2406846,
        "name": "Dangar I.",
        "region": "NSW",
        "station_id": "NSW_TP034",
        "timezone": "Australia/Sydney",
        "tz": "AEDT"
    },
    {
        "id": 532,
        "lat": 34.300223,
        "lng": -79.87599,
        "name": "Darlington Jetty",
        "region": "TAS",
        "station_id": "TAS_TP002",
        "timezone": "Australia/Hobart",
        "tz": "AEDT"
    },
    {
        "id": 141,
        "lat": -9.5974691,
        "lng": 143.7614205,
        "name": "Darnley I. Barge",
        "region": "QLD",
        "station_id": "QLD_TP274",
        "timezone": "Australia/Brisbane",
        "tz": "AEST"
    },
    {
        "id": 660,
        "lat": 24.016043,
        "lng": 85.563495,
        "name": "Daru",
        "region": "PNG",
        "station_id": "INT_TP034",
        "timezone": "Pacific/Port_Moresby",
        "tz": "PGT"
    },
    {
        "id": 590,
        "lat": -12.4620214,
        "lng": 130.8426305,
        "name": "Darwin",
        "region": "NT",
        "station_id": "NT_TP001",
        "timezone": "Australia/Darwin",
        "tz": "ACST"
    },
    {
        "id": 144,
        "lat": -9.4120425,
        "lng": 142.5378005,
        "name": "Dauan Island",
        "region": "QLD",
        "station_id": "QLD_TP144",
        "timezone": "Australia/Brisbane",
        "tz": "AEST"
    },
    {
        "id": 708,
        "lat": 38.5462903,
        "lng": -121.7466799,
        "name": "Davis",
        "region": "TAS",
        "station_id": "TAS_TP011",
        "timezone": "Australia/Hobart",
        "tz": "AEDT"
    },
    {
        "id": 427,
        "lat": -33.8469861,
        "lng": 124.139286,
        "name": "Daw I.",
        "region": "WA",
        "station_id": "WA_TP083",
        "timezone": "Australia/Perth",
        "tz": "AWST"
    },
    {
        "id": 661,
        "lat": "",
        "lng": "",
        "name": "Dedele Point",
        "region": "PNG",
        "station_id": "INT_TP035",
        "timezone": "Pacific/Apia",
        "tz": "PGT"
    },
    {
        "id": 347,
        "lat": -15.3354188,
        "lng": 124.198945,
        "name": "Degerando Island",
        "region": "WA",
        "station_id": "WA_TP042",
        "timezone": "Australia/Perth",
        "tz": "AWST"
    },
    {
        "id": 428,
        "lat": -25.9277196,
        "lng": 113.5361387,
        "name": "Denham",
        "region": "WA",
        "station_id": "WA_TP012",
        "timezone": "Australia/Perth",
        "tz": "AWST"
    },
    {
        "id": 392,
        "lat": -20.6334497,
        "lng": 117.7197435,
        "name": "Depuch I.",
        "region": "WA",
        "station_id": "WA_TP116",
        "timezone": "Australia/Perth",
        "tz": "AWST"
    },
    {
        "id": 348,
        "lat": 52.9230042,
        "lng": -1.4747453,
        "name": "Derby",
        "region": "WA",
        "station_id": "WA_TP043",
        "timezone": "Australia/Perth",
        "tz": "AWST"
    },
    {
        "id": 533,
        "lat": -41.1771006,
        "lng": 146.3510409,
        "name": "Devonport",
        "region": "TAS",
        "station_id": "TAS_TP005",
        "timezone": "Australia/Hobart",
        "tz": "AEDT"
    },
    {
        "id": 349,
        "lat": 45.2179188,
        "lng": -112.6355898,
        "name": "Dillon Shoal",
        "region": "WA",
        "station_id": "WA_TP044",
        "timezone": "Australia/Perth",
        "tz": "AWST"
    },
    {
        "id": 232,
        "lat": -18.41351662491322,
        "lng": 147.4514151183482,
        "name": "Dip Reef",
        "region": "QLD",
        "station_id": "QLD_TP198",
        "timezone": "Australia/Brisbane",
        "tz": "AEST"
    },
    {
        "id": 252,
        "lat": -33.8758435,
        "lng": 151.2419895,
        "name": "Double Bay",
        "region": "QLD",
        "station_id": "QLD_TP186",
        "timezone": "Australia/Brisbane",
        "tz": "AEST"
    },
    {
        "id": 662,
        "lat": "",
        "lng": "",
        "name": "Dregerhafen",
        "region": "PNG",
        "station_id": "INT_TP012",
        "timezone": "Pacific/Port_Moresby",
        "tz": "PGT"
    },
    {
        "id": 142,
        "lat": "",
        "lng": "",
        "name": "Dugong I.",
        "region": "QLD",
        "station_id": "QLD_TP260",
        "timezone": "Australia/Brisbane",
        "tz": "AEST"
    },
    {
        "id": 143,
        "lat": "",
        "lng": "",
        "name": "Dungeness Reef",
        "region": "QLD",
        "station_id": "QLD_TP271",
        "timezone": "Australia/Brisbane",
        "tz": "AEST"
    },
    {
        "id": 212,
        "lat": -17.9453926,
        "lng": 146.1591187,
        "name": "Dunk Island",
        "region": "QLD",
        "station_id": "QLD_TP062",
        "timezone": "Australia/Brisbane",
        "tz": "AEST"
    },
    {
        "id": 663,
        "lat": -38.2859803,
        "lng": 177.8516948,
        "name": "East Cape",
        "region": "PNG",
        "station_id": "INT_TP048",
        "timezone": "Pacific/Port_Moresby",
        "tz": "PGT"
    },
    {
        "id": 145,
        "lat": 18.2850657,
        "lng": -63.2365715,
        "name": "East Cay",
        "region": "QLD",
        "station_id": "QLD_TP117",
        "timezone": "Australia/Brisbane",
        "tz": "AEST"
    },
    {
        "id": 253,
        "lat": -17.4416667,
        "lng": 151.075,
        "name": "East Diamond I.",
        "region": "QLD",
        "station_id": "QLD_TP283",
        "timezone": "Australia/Brisbane",
        "tz": "AEST"
    },
    {
        "id": 592,
        "lat": 44.4684866,
        "lng": -89.5633369,
        "name": "East Field Island",
        "region": "NT",
        "station_id": "NT_TP016",
        "timezone": "Australia/Darwin",
        "tz": "ACST"
    },
    {
        "id": 227,
        "lat": 48.241787,
        "lng": -116.296794,
        "name": "East Hope I.",
        "region": "QLD",
        "station_id": "QLD_TP211",
        "timezone": "Australia/Brisbane",
        "tz": "AEST"
    },
    {
        "id": 534,
        "lat": -39.2278092,
        "lng": 146.538525,
        "name": "East Moncoeur I.",
        "region": "TAS",
        "station_id": "TAS_TP043",
        "timezone": "Australia/Hobart",
        "tz": "AEDT"
    },
    {
        "id": 103,
        "lat": "",
        "lng": "",
        "name": "East Petherbridge I.",
        "region": "QLD",
        "station_id": "QLD_TP219",
        "timezone": "Australia/Brisbane",
        "tz": "AEST"
    },
    {
        "id": 254,
        "lat": -20.5978778,
        "lng": 148.8790835,
        "name": "East Repulse I.",
        "region": "QLD",
        "station_id": "QLD_TP181",
        "timezone": "Australia/Brisbane",
        "tz": "AEST"
    },
    {
        "id": 429,
        "lat": -28.759789,
        "lng": 113.8419113,
        "name": "Easter Group",
        "region": "WA",
        "station_id": "WA_TP099",
        "timezone": "Australia/Perth",
        "tz": "AWST"
    },
    {
        "id": 350,
        "lat": "",
        "lng": "",
        "name": "Echo Shoal",
        "region": "WA",
        "station_id": "WA_TP079",
        "timezone": "Australia/Perth",
        "tz": "AWST"
    },
    {
        "id": 221,
        "lat": -17.77272217846595,
        "lng": 146.43279967692,
        "name": "Eddy Reef",
        "region": "QLD",
        "station_id": "QLD_TP203",
        "timezone": "Australia/Brisbane",
        "tz": "AEST"
    },
    {
        "id": 535,
        "lat": 37.53504135709917,
        "lng": -122.24578296158552,
        "name": "Eddystone Point",
        "region": "TAS",
        "station_id": "TAS_TP034",
        "timezone": "Australia/Hobart",
        "tz": "AEDT"
    },
    {
        "id": 11,
        "lat": 37.3052717,
        "lng": -121.9574721,
        "name": "Eden",
        "region": "NSW",
        "station_id": "NSW_TP002",
        "timezone": "Australia/Sydney",
        "tz": "AEDT"
    },
    {
        "id": 104,
        "lat": 37.7060591,
        "lng": -122.0197977,
        "name": "Eden Reef",
        "region": "QLD",
        "station_id": "QLD_TP223",
        "timezone": "Australia/Brisbane",
        "tz": "AEST"
    },
    {
        "id": 298,
        "lat": "",
        "lng": "",
        "name": "Elbow Point",
        "region": "QLD",
        "station_id": "QLD_TP151",
        "timezone": "Australia/Brisbane",
        "tz": "AEST"
    },
    {
        "id": 593,
        "lat": -12.0198349,
        "lng": 135.5663374,
        "name": "Elcho Island",
        "region": "NT",
        "station_id": "NT_TP018",
        "timezone": "Australia/Darwin",
        "tz": "ACST"
    },
    {
        "id": 664,
        "lat": -5.5020845,
        "lng": 149.7311675,
        "name": "Eleonora Bay",
        "region": "PNG",
        "station_id": "INT_TP036",
        "timezone": "Pacific/Port_Moresby",
        "tz": "PGT"
    },
    {
        "id": 44,
        "lat": 59.1569564,
        "lng": -151.8286142,
        "name": "Elizabeth Island",
        "region": "VIC",
        "station_id": "VIC_TP019",
        "timezone": "Australia/Melbourne",
        "tz": "AEDT"
    },
    {
        "id": 299,
        "lat": -35.5124079,
        "lng": 174.4940681,
        "name": "Elizabeth Reef",
        "region": "QLD",
        "station_id": "QLD_TP285",
        "timezone": "Australia/Brisbane",
        "tz": "AEST"
    },
    {
        "id": 300,
        "lat": -24.9158302,
        "lng": 152.4935877,
        "name": "Elliott Heads",
        "region": "QLD",
        "station_id": "QLD_TP154",
        "timezone": "Australia/Brisbane",
        "tz": "AEST"
    },
    {
        "id": 471,
        "lat": -33.6485274,
        "lng": 134.8893044,
        "name": "Elliston",
        "region": "SA",
        "station_id": "SA_TP014",
        "timezone": "Australia/Adelaide",
        "tz": "ACDT"
    },
    {
        "id": 255,
        "lat": -21.11676052362565,
        "lng": 152.7794260117717,
        "name": "Elusive Reef",
        "region": "QLD",
        "station_id": "QLD_TP174",
        "timezone": "Australia/Brisbane",
        "tz": "AEST"
    },
    {
        "id": 105,
        "lat": -15.44266659049099,
        "lng": 145.1486784138388,
        "name": "Endeavour River North",
        "region": "QLD",
        "station_id": "QLD_TP065",
        "timezone": "Australia/Brisbane",
        "tz": "AEST"
    },
    {
        "id": 594,
        "lat": 49.208979,
        "lng": -123.809392,
        "name": "Entrance I.",
        "region": "NT",
        "station_id": "NT_TP089",
        "timezone": "Australia/Darwin",
        "tz": "ACST"
    },
    {
        "id": 430,
        "lat": -33.8607809,
        "lng": 121.8902895,
        "name": "Esperance",
        "region": "WA",
        "station_id": "WA_TP013",
        "timezone": "Australia/Perth",
        "tz": "AWST"
    },
    {
        "id": 12,
        "lat": -33.5333934,
        "lng": 151.3108584,
        "name": "Ettalong",
        "region": "NSW",
        "station_id": "NSW_TP035",
        "timezone": "Australia/Sydney",
        "tz": "AEDT"
    },
    {
        "id": 431,
        "lat": -31.6750545,
        "lng": 128.8834843,
        "name": "Eucla",
        "region": "WA",
        "station_id": "WA_TP045",
        "timezone": "Australia/Perth",
        "tz": "AWST"
    },
    {
        "id": 213,
        "lat": -16.68714760509286,
        "lng": 146.2524189220737,
        "name": "Euston Reef",
        "region": "QLD",
        "station_id": "QLD_TP066",
        "timezone": "Australia/Brisbane",
        "tz": "AEST"
    },
    {
        "id": 13,
        "lat": -29.1159989,
        "lng": 153.4335198,
        "name": "Evans Head",
        "region": "NSW",
        "station_id": "NSW_TP013",
        "timezone": "Australia/Sydney",
        "tz": "AEDT"
    },
    {
        "id": 595,
        "lat": "",
        "lng": "",
        "name": "Evans Shoal",
        "region": "NT",
        "station_id": "NT_TP047",
        "timezone": "Australia/Darwin",
        "tz": "ACST"
    },
    {
        "id": 393,
        "lat": -21.9315947,
        "lng": 114.1240004,
        "name": "Exmouth",
        "region": "WA",
        "station_id": "WA_TP014",
        "timezone": "Australia/Perth",
        "tz": "AWST"
    },
    {
        "id": 394,
        "lat": 41.50834,
        "lng": -73.977561,
        "name": "Fairway Beacon",
        "region": "WA",
        "station_id": "WA_TP046",
        "timezone": "Australia/Perth",
        "tz": "AWST"
    },
    {
        "id": 536,
        "lat": 41.551572,
        "lng": -70.618151,
        "name": "Falmouth",
        "region": "TAS",
        "station_id": "TAS_TP036",
        "timezone": "Australia/Hobart",
        "tz": "AEDT"
    },
    {
        "id": 596,
        "lat": 37.3838888,
        "lng": -121.8322904,
        "name": "Fenton Patches",
        "region": "NT",
        "station_id": "NT_TP061",
        "timezone": "Australia/Darwin",
        "tz": "ACST"
    },
    {
        "id": 106,
        "lat": 58.4668353,
        "lng": -103.2495518,
        "name": "Fife Island",
        "region": "QLD",
        "station_id": "QLD_TP067",
        "timezone": "Australia/Brisbane",
        "tz": "AEST"
    },
    {
        "id": 597,
        "lat": -45.4010243,
        "lng": 170.8961159,
        "name": "Fish Reef",
        "region": "NT",
        "station_id": "NT_TP054",
        "timezone": "Australia/Darwin",
        "tz": "ACST"
    },
    {
        "id": 214,
        "lat": -16.9314097,
        "lng": 145.9886212,
        "name": "Fitzroy Island",
        "region": "QLD",
        "station_id": "QLD_TP068",
        "timezone": "Australia/Brisbane",
        "tz": "AEST"
    },
    {
        "id": 432,
        "lat": -42.9858215,
        "lng": 147.8467071,
        "name": "Flinders Bay",
        "region": "WA",
        "station_id": "WA_TP088",
        "timezone": "Australia/Perth",
        "tz": "AWST"
    },
    {
        "id": 45,
        "lat": -38.4754724,
        "lng": 145.0256675,
        "name": "Flinders Jetty",
        "region": "VIC",
        "station_id": "VIC_TP020",
        "timezone": "Australia/Melbourne",
        "tz": "AEDT"
    },
    {
        "id": 215,
        "lat": -26.9833333,
        "lng": 153.5,
        "name": "Flinders Reef",
        "region": "QLD",
        "station_id": "QLD_TP069",
        "timezone": "Australia/Brisbane",
        "tz": "AEST"
    },
    {
        "id": 14,
        "lat": -32.1802676,
        "lng": 152.5103505,
        "name": "Forster",
        "region": "NSW",
        "station_id": "NSW_TP018",
        "timezone": "Australia/Sydney",
        "tz": "AEDT"
    },
    {
        "id": 395,
        "lat": 51.4155519,
        "lng": -0.1757978,
        "name": "Fortescue Road",
        "region": "WA",
        "station_id": "WA_TP115",
        "timezone": "Australia/Perth",
        "tz": "AWST"
    },
    {
        "id": 495,
        "lat": -33.7249611,
        "lng": 136.9358917,
        "name": "Franklin Harbor",
        "region": "SA",
        "station_id": "SA_TP016",
        "timezone": "Australia/Adelaide",
        "tz": "ACDT"
    },
    {
        "id": 496,
        "lat": "",
        "lng": "",
        "name": "Franklin Harbor Entrance Beacon",
        "region": "SA",
        "station_id": "SA_TP049",
        "timezone": "Australia/Adelaide",
        "tz": "ACDT"
    },
    {
        "id": 146,
        "lat": -33.4416147,
        "lng": 151.3435249,
        "name": "Frederick Point",
        "region": "QLD",
        "station_id": "QLD_TP118",
        "timezone": "Australia/Brisbane",
        "tz": "AEST"
    },
    {
        "id": 433,
        "lat": 38.7527491,
        "lng": -121.3424313,
        "name": "Fremantle",
        "region": "WA",
        "station_id": "WA_TP015",
        "timezone": "Australia/Perth",
        "tz": "AWST"
    },
    {
        "id": 665,
        "lat": -8.4958845,
        "lng": 179.194299,
        "name": "Funafuti",
        "region": "TUV",
        "station_id": "INT_TP026",
        "timezone": "Pacific/Funafuti",
        "tz": "TVT"
    },
    {
        "id": 46,
        "lat": -37.5649117,
        "lng": 149.913257,
        "name": "Gabo I.",
        "region": "VIC",
        "station_id": "VIC_TP039",
        "timezone": "Australia/Melbourne",
        "tz": "AEDT"
    },
    {
        "id": 256,
        "lat": -21.9804144,
        "lng": 152.4728411,
        "name": "Gannet Cay",
        "region": "QLD",
        "station_id": "QLD_TP070",
        "timezone": "Australia/Brisbane",
        "tz": "AEST"
    },
    {
        "id": 537,
        "lat": 25.1688055,
        "lng": -80.3718561,
        "name": "Garden Cove",
        "region": "TAS",
        "station_id": "TAS_TP046",
        "timezone": "Australia/Hobart",
        "tz": "AEDT"
    },
    {
        "id": 301,
        "lat": "",
        "lng": "",
        "name": "Gatcombe Head",
        "region": "QLD",
        "station_id": "QLD_TP071",
        "timezone": "Australia/Brisbane",
        "tz": "AEST"
    },
    {
        "id": 47,
        "lat": -38.1465317,
        "lng": 144.3581252,
        "name": "Geelong",
        "region": "VIC",
        "station_id": "VIC_TP005",
        "timezone": "Australia/Melbourne",
        "tz": "AEDT"
    },
    {
        "id": 434,
        "lat": -28.7741671,
        "lng": 114.6130361,
        "name": "Geraldton",
        "region": "WA",
        "station_id": "WA_TP016",
        "timezone": "Australia/Perth",
        "tz": "AWST"
    },
    {
        "id": 302,
        "lat": -23.8402584,
        "lng": 151.2538329,
        "name": "Gladstone",
        "region": "QLD",
        "station_id": "QLD_TP008",
        "timezone": "Australia/Brisbane",
        "tz": "AEST"
    },
    {
        "id": 497,
        "lat": 39.2564256,
        "lng": -77.0296549,
        "name": "Glenelg",
        "region": "SA",
        "station_id": "SA_TP017",
        "timezone": "Australia/Adelaide",
        "tz": "ACDT"
    },
    {
        "id": 598,
        "lat": -12.1811985,
        "lng": 131.0783131,
        "name": "Glyde Point",
        "region": "NT",
        "station_id": "NT_TP064",
        "timezone": "Australia/Darwin",
        "tz": "ACST"
    },
    {
        "id": 666,
        "lat": -7.7753597,
        "lng": 144.2240582,
        "name": "Goaribari Island",
        "region": "PNG",
        "station_id": "INT_TP037",
        "timezone": "Pacific/Port_Moresby",
        "tz": "PGT"
    },
    {
        "id": 303,
        "lat": 38.274031473783204,
        "lng": -122.02167309457477,
        "name": "Gold Coast Operations Base",
        "region": "QLD",
        "station_id": "QLD_TP009",
        "timezone": "Australia/Brisbane",
        "tz": "AEST"
    },
    {
        "id": 304,
        "lat": -27.9386842,
        "lng": 153.4274981,
        "name": "Gold Coast Sand Bypass Jetty",
        "region": "QLD",
        "station_id": "QLD_TP010",
        "timezone": "Australia/Brisbane",
        "tz": "AEST"
    },
    {
        "id": 305,
        "lat": -27.9592238,
        "lng": 153.4185176,
        "name": "Gold Coast Seaway",
        "region": "QLD",
        "station_id": "QLD_TP011",
        "timezone": "Australia/Brisbane",
        "tz": "AEST"
    },
    {
        "id": 599,
        "lat": -10.7,
        "lng": 130.3166667,
        "name": "Goodrich Bank",
        "region": "NT",
        "station_id": "NT_TP050",
        "timezone": "Australia/Darwin",
        "tz": "ACST"
    },
    {
        "id": 147,
        "lat": 37.444747,
        "lng": -87.144413,
        "name": "Goods Island",
        "region": "QLD",
        "station_id": "QLD_TP027",
        "timezone": "Australia/Brisbane",
        "tz": "AEST"
    },
    {
        "id": 233,
        "lat": -18.1659438,
        "lng": 146.175619,
        "name": "Goold I.",
        "region": "QLD",
        "station_id": "QLD_TP200",
        "timezone": "Australia/Brisbane",
        "tz": "AEST"
    },
    {
        "id": 435,
        "lat": -34.08761399999999,
        "lng": 123.1955874,
        "name": "Goose I. Bay",
        "region": "WA",
        "station_id": "WA_TP084",
        "timezone": "Australia/Perth",
        "tz": "AWST"
    },
    {
        "id": 15,
        "lat": 35.3040636,
        "lng": -119.0797038,
        "name": "Gosford",
        "region": "NSW",
        "station_id": "NSW_TP036",
        "timezone": "Australia/Sydney",
        "tz": "AEDT"
    },
    {
        "id": 600,
        "lat": 37.3386041,
        "lng": -122.06858,
        "name": "Grant I.",
        "region": "NT",
        "station_id": "NT_TP086",
        "timezone": "Australia/Darwin",
        "tz": "ACST"
    },
    {
        "id": 538,
        "lat": -41.8077668,
        "lng": 145.0351237,
        "name": "Granville Harbour",
        "region": "TAS",
        "station_id": "TAS_TP018",
        "timezone": "Australia/Hobart",
        "tz": "AEDT"
    },
    {
        "id": 216,
        "lat": 38.2015809,
        "lng": -122.3044876,
        "name": "Green Island",
        "region": "QLD",
        "station_id": "QLD_TP073",
        "timezone": "Australia/Brisbane",
        "tz": "AEST"
    },
    {
        "id": 472,
        "lat": 51.3788923,
        "lng": -57.1909182,
        "name": "Greenly Island",
        "region": "SA",
        "station_id": "SA_TP018",
        "timezone": "Australia/Adelaide",
        "tz": "ACDT"
    },
    {
        "id": 601,
        "lat": -11.5267372,
        "lng": 136.4173584,
        "name": "Guluwuru Island",
        "region": "NT",
        "station_id": "NT_TP019",
        "timezone": "Australia/Darwin",
        "tz": "ACST"
    },
    {
        "id": 351,
        "lat": "",
        "lng": "",
        "name": "Guy Point",
        "region": "WA",
        "station_id": "WA_TP141",
        "timezone": "Australia/Perth",
        "tz": "AWST"
    },
    {
        "id": 148,
        "lat": 37.5745642,
        "lng": -122.041957,
        "name": "Half Way I.",
        "region": "QLD",
        "station_id": "QLD_TP261",
        "timezone": "Australia/Brisbane",
        "tz": "AEST"
    },
    {
        "id": 352,
        "lat": 37.319142,
        "lng": -122.0221282,
        "name": "Hall Point",
        "region": "WA",
        "station_id": "WA_TP128",
        "timezone": "Australia/Perth",
        "tz": "AWST"
    },
    {
        "id": 107,
        "lat": "",
        "lng": "",
        "name": "Ham Reef",
        "region": "QLD",
        "station_id": "QLD_TP229",
        "timezone": "Australia/Brisbane",
        "tz": "AEST"
    },
    {
        "id": 436,
        "lat": -26.4099234,
        "lng": 114.4605617,
        "name": "Hamelin Pool",
        "region": "WA",
        "station_id": "WA_TP047",
        "timezone": "Australia/Perth",
        "tz": "AWST"
    },
    {
        "id": 602,
        "lat": "",
        "lng": "",
        "name": "Hancox Shoal",
        "region": "NT",
        "station_id": "NT_TP062",
        "timezone": "Australia/Darwin",
        "tz": "ACST"
    },
    {
        "id": 108,
        "lat": 37.93777601988236,
        "lng": -122.09976456074384,
        "name": "Hannibal I.",
        "region": "QLD",
        "station_id": "QLD_TP238",
        "timezone": "Australia/Brisbane",
        "tz": "AEST"
    },
    {
        "id": 16,
        "lat": -31.8758046,
        "lng": 152.7128182,
        "name": "Harrington Inlet",
        "region": "NSW",
        "station_id": "NSW_TP019",
        "timezone": "Australia/Sydney",
        "tz": "AEDT"
    },
    {
        "id": 149,
        "lat": 37.3196589,
        "lng": -122.3010611,
        "name": "Harrington Reef",
        "region": "QLD",
        "station_id": "QLD_TP249",
        "timezone": "Australia/Brisbane",
        "tz": "AEST"
    },
    {
        "id": 109,
        "lat": 40.1596716,
        "lng": -105.8514425,
        "name": "Harvey Island",
        "region": "QLD",
        "station_id": "QLD_TP074",
        "timezone": "Australia/Brisbane",
        "tz": "AEST"
    },
    {
        "id": 257,
        "lat": -20.280012,
        "lng": 149.0840869,
        "name": "Haslewood I.",
        "region": "QLD",
        "station_id": "QLD_TP191",
        "timezone": "Australia/Brisbane",
        "tz": "AEST"
    },
    {
        "id": 396,
        "lat": 37.2514182,
        "lng": -122.0128861,
        "name": "Hauy Island",
        "region": "WA",
        "station_id": "WA_TP048",
        "timezone": "Australia/Perth",
        "tz": "AWST"
    },
    {
        "id": 603,
        "lat": 37.3470895,
        "lng": -122.0197393,
        "name": "Hawk I.",
        "region": "NT",
        "station_id": "NT_TP041",
        "timezone": "Australia/Darwin",
        "tz": "ACST"
    },
    {
        "id": 150,
        "lat": 37.53775431827803,
        "lng": -122.26788135685476,
        "name": "Hawkesbury I.",
        "region": "QLD",
        "station_id": "QLD_TP259",
        "timezone": "Australia/Brisbane",
        "tz": "AEST"
    },
    {
        "id": 258,
        "lat": -21.295034,
        "lng": 149.2902393,
        "name": "Hay Point",
        "region": "QLD",
        "station_id": "QLD_TP012",
        "timezone": "Australia/Brisbane",
        "tz": "AEST"
    },
    {
        "id": 259,
        "lat": 37.3653441,
        "lng": -122.0830006,
        "name": "Hayman I.",
        "region": "QLD",
        "station_id": "QLD_TP184",
        "timezone": "Australia/Brisbane",
        "tz": "AEST"
    },
    {
        "id": 709,
        "lat": 50.8282527,
        "lng": -127.5126118,
        "name": "Heard Island",
        "region": "ATA",
        "station_id": "TAS_TP015",
        "timezone": "Antarctica/Mawson",
        "tz": "MAWT"
    },
    {
        "id": 151,
        "lat": 37.339657911157566,
        "lng": -121.85473133614302,
        "name": "Herald Camp",
        "region": "QLD",
        "station_id": "QLD_TP250",
        "timezone": "Australia/Brisbane",
        "tz": "AEST"
    },
    {
        "id": 306,
        "lat": -23.4426003,
        "lng": 151.9150085,
        "name": "Heron Island",
        "region": "QLD",
        "station_id": "QLD_TP075",
        "timezone": "Australia/Brisbane",
        "tz": "AEST"
    },
    {
        "id": 353,
        "lat": 37.2087959,
        "lng": -121.8228133,
        "name": "Heywood Shoal",
        "region": "WA",
        "station_id": "WA_TP138",
        "timezone": "Australia/Perth",
        "tz": "AWST"
    },
    {
        "id": 110,
        "lat": 37.4022593,
        "lng": -76.8947898,
        "name": "Hicks Island",
        "region": "QLD",
        "station_id": "QLD_TP076",
        "timezone": "Australia/Brisbane",
        "tz": "AEST"
    },
    {
        "id": 200,
        "lat": 37.44025536819696,
        "lng": -122.15730706298557,
        "name": "High I.",
        "region": "QLD",
        "station_id": "QLD_TP207",
        "timezone": "Australia/Brisbane",
        "tz": "AEST"
    },
    {
        "id": 260,
        "lat": -21.9566533,
        "lng": 150.6878662,
        "name": "High Peak Island",
        "region": "QLD",
        "station_id": "QLD_TP077",
        "timezone": "Australia/Brisbane",
        "tz": "AEST"
    },
    {
        "id": 437,
        "lat": -31.8084547,
        "lng": 115.7437414,
        "name": "Hillarys",
        "region": "WA",
        "station_id": "WA_TP017",
        "timezone": "Australia/Perth",
        "tz": "AWST"
    },
    {
        "id": 539,
        "lat": -42.8826254,
        "lng": 147.3257119,
        "name": "Hobart",
        "region": "TAS",
        "station_id": "TAS_TP003",
        "timezone": "Australia/Hobart",
        "tz": "AEDT"
    },
    {
        "id": 540,
        "lat": 37.402124868709635,
        "lng": -121.96057795198915,
        "name": "Hogan I.",
        "region": "TAS",
        "station_id": "TAS_TP045",
        "timezone": "Australia/Hobart",
        "tz": "AEDT"
    },
    {
        "id": 605,
        "lat": "",
        "lng": "",
        "name": "Hogmany Shoal",
        "region": "NT",
        "station_id": "NT_TP020",
        "timezone": "Australia/Darwin",
        "tz": "ACST"
    },
    {
        "id": 201,
        "lat": -16.45,
        "lng": 148,
        "name": "Holmes Reef",
        "region": "QLD",
        "station_id": "QLD_TP214",
        "timezone": "Australia/Brisbane",
        "tz": "AEST"
    },
    {
        "id": 667,
        "lat": 63.4270499,
        "lng": -20.2693172,
        "name": "Home Island",
        "region": "CCK",
        "station_id": "WA_TP010",
        "timezone": "Australia/Perth",
        "tz": "CCT"
    },
    {
        "id": 668,
        "lat": -9.4308284,
        "lng": 159.9547026,
        "name": "Honiara",
        "region": "SLB",
        "station_id": "INT_TP023",
        "timezone": "Pacific/Guadalcanal",
        "tz": "SBT"
    },
    {
        "id": 261,
        "lat": -20.1135349,
        "lng": 148.9263611,
        "name": "Hook I.",
        "region": "QLD",
        "station_id": "QLD_TP189",
        "timezone": "Australia/Brisbane",
        "tz": "AEST"
    },
    {
        "id": 604,
        "lat": -11.4214403,
        "lng": 136.4925756,
        "name": "Hopeful Bay",
        "region": "NT",
        "station_id": "NT_TP092",
        "timezone": "Australia/Darwin",
        "tz": "ACST"
    },
    {
        "id": 48,
        "lat": "",
        "lng": "",
        "name": "Hovell Pile",
        "region": "VIC",
        "station_id": "VIC_TP006",
        "timezone": "Australia/Melbourne",
        "tz": "AEDT"
    },
    {
        "id": 17,
        "lat": -35.0388349,
        "lng": 150.6709272,
        "name": "Huskisson",
        "region": "NSW",
        "station_id": "NSW_TP031",
        "timezone": "Australia/Sydney",
        "tz": "AEDT"
    },
    {
        "id": 606,
        "lat": 40.9823272,
        "lng": -73.7890241,
        "name": "Hutchison River",
        "region": "NT",
        "station_id": "NT_TP021",
        "timezone": "Australia/Darwin",
        "tz": "ACST"
    },
    {
        "id": 354,
        "lat": 37.5682484,
        "lng": -122.2844862,
        "name": "Imperieuse Reef",
        "region": "WA",
        "station_id": "WA_TP117",
        "timezone": "Australia/Perth",
        "tz": "AWST"
    },
    {
        "id": 541,
        "lat": -43.0505821,
        "lng": 147.7746595,
        "name": "Impression Bay",
        "region": "TAS",
        "station_id": "TAS_TP038",
        "timezone": "Australia/Hobart",
        "tz": "AEDT"
    },
    {
        "id": 152,
        "lat": "",
        "lng": "",
        "name": "Ince Point",
        "region": "QLD",
        "station_id": "QLD_TP028",
        "timezone": "Australia/Brisbane",
        "tz": "AEST"
    },
    {
        "id": 355,
        "lat": -12.6729862,
        "lng": 132.8364641,
        "name": "Jabiru",
        "region": "WA",
        "station_id": "WA_TP131",
        "timezone": "Australia/Perth",
        "tz": "AWST"
    },
    {
        "id": 669,
        "lat": 35.9118434,
        "lng": -95.3118391,
        "name": "Jackson Bay",
        "region": "NZL",
        "station_id": "INT_TP008",
        "timezone": "Pacific/Auckland",
        "tz": "NZDT"
    },
    {
        "id": 234,
        "lat": 16.8402637,
        "lng": -88.27145039999999,
        "name": "Jaguar Reef",
        "region": "QLD",
        "station_id": "QLD_TP195",
        "timezone": "Australia/Brisbane",
        "tz": "AEST"
    },
    {
        "id": 356,
        "lat": -14.1537199,
        "lng": 126.2362645,
        "name": "Jar Island",
        "region": "WA",
        "station_id": "WA_TP081",
        "timezone": "Australia/Perth",
        "tz": "AWST"
    },
    {
        "id": 18,
        "lat": -35.1288692,
        "lng": 150.7061469,
        "name": "Jervis Bay",
        "region": "NSW",
        "station_id": "NSW_TP014",
        "timezone": "Australia/Sydney",
        "tz": "AEDT"
    },
    {
        "id": 235,
        "lat": -18.63057699829518,
        "lng": 147.0506068416072,
        "name": "John Brewer Reef",
        "region": "QLD",
        "station_id": "QLD_TP197",
        "timezone": "Australia/Brisbane",
        "tz": "AEST"
    },
    {
        "id": 307,
        "lat": "",
        "lng": "",
        "name": "Johnson Patch - Nw",
        "region": "QLD",
        "station_id": "QLD_TP169",
        "timezone": "Australia/Brisbane",
        "tz": "AEST"
    },
    {
        "id": 607,
        "lat": 37.34157167642671,
        "lng": -122.06623642599769,
        "name": "Jones Point",
        "region": "NT",
        "station_id": "NT_TP022",
        "timezone": "Australia/Darwin",
        "tz": "ACST"
    },
    {
        "id": 111,
        "lat": "",
        "lng": "",
        "name": "Jubilee Reef",
        "region": "QLD",
        "station_id": "QLD_TP230",
        "timezone": "Australia/Brisbane",
        "tz": "AEST"
    },
    {
        "id": 438,
        "lat": -30.3054617,
        "lng": 115.0388295,
        "name": "Jurien Bay",
        "region": "WA",
        "station_id": "WA_TP049",
        "timezone": "Australia/Perth",
        "tz": "AWST"
    },
    {
        "id": 153,
        "lat": "",
        "lng": "",
        "name": "Kai-Maituine Rf - Ne",
        "region": "QLD",
        "station_id": "QLD_TP270",
        "timezone": "Australia/Brisbane",
        "tz": "AEST"
    },
    {
        "id": 439,
        "lat": -27.7104451,
        "lng": 114.1646059,
        "name": "Kalbarri",
        "region": "WA",
        "station_id": "WA_TP100",
        "timezone": "Australia/Perth",
        "tz": "AWST"
    },
    {
        "id": 670,
        "lat": -17.2649009,
        "lng": -179.1513177,
        "name": "Kanawea Island",
        "region": "PNG",
        "station_id": "INT_TP038",
        "timezone": "Pacific/Port_Moresby",
        "tz": "PGT"
    },
    {
        "id": 308,
        "lat": -41.2508416,
        "lng": 172.1283298,
        "name": "Karamea Bank",
        "region": "QLD",
        "station_id": "QLD_TP168",
        "timezone": "Australia/Brisbane",
        "tz": "AEST"
    },
    {
        "id": 357,
        "lat": -16.3771882,
        "lng": 123.0281261,
        "name": "Karrakatta Bay",
        "region": "WA",
        "station_id": "WA_TP122",
        "timezone": "Australia/Perth",
        "tz": "AWST"
    },
    {
        "id": 87,
        "lat": -17.4875523,
        "lng": 140.8369845,
        "name": "Karumba",
        "region": "QLD",
        "station_id": "QLD_TP013",
        "timezone": "Australia/Brisbane",
        "tz": "AEST"
    },
    {
        "id": 671,
        "lat": -2.5781167,
        "lng": 150.8086082,
        "name": "Kavieng",
        "region": "PNG",
        "station_id": "INT_TP016",
        "timezone": "Pacific/Port_Moresby",
        "tz": "PGT"
    },
    {
        "id": 112,
        "lat": -12.23241351145667,
        "lng": 143.2854112600595,
        "name": "Kay Reef",
        "region": "QLD",
        "station_id": "QLD_TP234",
        "timezone": "Australia/Brisbane",
        "tz": "AEST"
    },
    {
        "id": 236,
        "lat": -19.44871896196702,
        "lng": 149.1386478145529,
        "name": "Kennedy Reef",
        "region": "QLD",
        "station_id": "QLD_TP193",
        "timezone": "Australia/Brisbane",
        "tz": "AEST"
    },
    {
        "id": 672,
        "lat": -35.413042,
        "lng": 144.6662472,
        "name": "Kieta",
        "region": "PNG",
        "station_id": "INT_TP039",
        "timezone": "Pacific/Port_Moresby",
        "tz": "PGT"
    },
    {
        "id": 542,
        "lat": 38.063963,
        "lng": -121.4356201,
        "name": "King Island (Grassy)",
        "region": "TAS",
        "station_id": "TAS_TP023",
        "timezone": "Australia/Hobart",
        "tz": "AEDT"
    },
    {
        "id": 19,
        "lat": -28.2563065,
        "lng": 153.5780704,
        "name": "Kingscliff",
        "region": "NSW",
        "station_id": "NSW_TP029",
        "timezone": "Australia/Sydney",
        "tz": "AEDT"
    },
    {
        "id": 473,
        "lat": -35.6529317,
        "lng": 137.6343935,
        "name": "Kingscote",
        "region": "SA",
        "station_id": "SA_TP062",
        "timezone": "Australia/Adelaide",
        "tz": "ACDT"
    },
    {
        "id": 474,
        "lat": 41.926531,
        "lng": -73.995912,
        "name": "Kingston",
        "region": "SA",
        "station_id": "SA_TP055",
        "timezone": "Australia/Adelaide",
        "tz": "ACDT"
    },
    {
        "id": 154,
        "lat": "",
        "lng": "",
        "name": "Kirkcaldie Reef",
        "region": "QLD",
        "station_id": "QLD_TP256",
        "timezone": "Australia/Brisbane",
        "tz": "AEST"
    },
    {
        "id": 20,
        "lat": -33.7416052,
        "lng": 151.1519716,
        "name": "Ku-Ring-Gai Y.C.",
        "region": "NSW",
        "station_id": "NSW_TP033",
        "timezone": "Australia/Sydney",
        "tz": "AEDT"
    },
    {
        "id": 155,
        "lat": -10.233851,
        "lng": 142.2169433,
        "name": "Kubin (Moa Island)",
        "region": "QLD",
        "station_id": "QLD_TP080",
        "timezone": "Australia/Brisbane",
        "tz": "AEST"
    },
    {
        "id": 358,
        "lat": -14.7505388,
        "lng": 128.3131409,
        "name": "Lacrosse Island",
        "region": "WA",
        "station_id": "WA_TP050",
        "timezone": "Australia/Perth",
        "tz": "AWST"
    },
    {
        "id": 543,
        "lat": -40.2107559,
        "lng": 148.2395352,
        "name": "Lady Barron",
        "region": "TAS",
        "station_id": "TAS_TP032",
        "timezone": "Australia/Hobart",
        "tz": "AEDT"
    },
    {
        "id": 309,
        "lat": -24.1128797,
        "lng": 152.7140185,
        "name": "Lady Elliot I.",
        "region": "QLD",
        "station_id": "QLD_TP158",
        "timezone": "Australia/Brisbane",
        "tz": "AEST"
    },
    {
        "id": 310,
        "lat": -23.9073276,
        "lng": 152.3924561,
        "name": "Lady Musgrave I.",
        "region": "QLD",
        "station_id": "QLD_TP157",
        "timezone": "Australia/Brisbane",
        "tz": "AEST"
    },
    {
        "id": 673,
        "lat": -6.7225479,
        "lng": 146.995426,
        "name": "Lae",
        "region": "PNG",
        "station_id": "INT_TP013",
        "timezone": "Pacific/Port_Moresby",
        "tz": "PGT"
    },
    {
        "id": 359,
        "lat": -18.6394094,
        "lng": 121.722284,
        "name": "Lagrange Bay",
        "region": "WA",
        "station_id": "WA_TP119",
        "timezone": "Australia/Perth",
        "tz": "AWST"
    },
    {
        "id": 262,
        "lat": -20.6104869,
        "lng": 148.6696359,
        "name": "Laguna Quays",
        "region": "QLD",
        "station_id": "QLD_TP137",
        "timezone": "Australia/Brisbane",
        "tz": "AEST"
    },
    {
        "id": 49,
        "lat": -37.8778245,
        "lng": 147.994206,
        "name": "Lakes Entrance (Outer)",
        "region": "VIC",
        "station_id": "VIC_TP001",
        "timezone": "Australia/Melbourne",
        "tz": "AEDT"
    },
    {
        "id": 360,
        "lat": 37.39622,
        "lng": -122.2033657,
        "name": "Laminaria",
        "region": "WA",
        "station_id": "WA_TP133",
        "timezone": "Australia/Perth",
        "tz": "AWST"
    },
    {
        "id": 440,
        "lat": -31.0188017,
        "lng": 115.3320355,
        "name": "Lancelin",
        "region": "WA",
        "station_id": "WA_TP094",
        "timezone": "Australia/Perth",
        "tz": "AWST"
    },
    {
        "id": 397,
        "lat": "",
        "lng": "",
        "name": "Large I.",
        "region": "WA",
        "station_id": "WA_TP112",
        "timezone": "Australia/Perth",
        "tz": "AWST"
    },
    {
        "id": 674,
        "lat": "",
        "lng": "",
        "name": "Lata Wharf",
        "region": "SLB",
        "station_id": "INT_TP050",
        "timezone": "Pacific/Guadalcanal",
        "tz": "SBT"
    },
    {
        "id": 544,
        "lat": -41.4339305,
        "lng": 147.1385175,
        "name": "Launceston",
        "region": "TAS",
        "station_id": "TAS_TP019",
        "timezone": "Australia/Hobart",
        "tz": "AEDT"
    },
    {
        "id": 675,
        "lat": -17.6102288,
        "lng": 177.4558304,
        "name": "Lautoka",
        "region": "FJI",
        "station_id": "INT_TP003",
        "timezone": "Pacific/Fiji",
        "tz": "FJST"
    },
    {
        "id": 398,
        "lat": -37.4333665,
        "lng": 143.7310708,
        "name": "Learmonth",
        "region": "WA",
        "station_id": "WA_TP108",
        "timezone": "Australia/Perth",
        "tz": "AWST"
    },
    {
        "id": 441,
        "lat": -29.9453013,
        "lng": 114.9826802,
        "name": "Leeman",
        "region": "WA",
        "station_id": "WA_TP097",
        "timezone": "Australia/Perth",
        "tz": "AWST"
    },
    {
        "id": 113,
        "lat": -14.5472738,
        "lng": 144.8683177,
        "name": "Leggatt Island",
        "region": "QLD",
        "station_id": "QLD_TP014",
        "timezone": "Australia/Brisbane",
        "tz": "AEST"
    },
    {
        "id": 361,
        "lat": -13.8191185,
        "lng": 127.2713928,
        "name": "Lesueur Island",
        "region": "WA",
        "station_id": "WA_TP051",
        "timezone": "Australia/Perth",
        "tz": "AWST"
    },
    {
        "id": 263,
        "lat": 37.5682484,
        "lng": -122.2844862,
        "name": "Lihou Reef",
        "region": "QLD",
        "station_id": "QLD_TP015",
        "timezone": "Australia/Brisbane",
        "tz": "AEST"
    },
    {
        "id": 114,
        "lat": -22.575197,
        "lng": 144.0847926,
        "name": "Lizard I. (Qld)",
        "region": "QLD",
        "station_id": "QLD_TP016",
        "timezone": "Australia/Brisbane",
        "tz": "AEST"
    },
    {
        "id": 362,
        "lat": -14.6652145,
        "lng": 145.46315,
        "name": "Lizard Island",
        "region": "WA",
        "station_id": "WA_TP052",
        "timezone": "Australia/Perth",
        "tz": "AWST"
    },
    {
        "id": 676,
        "lat": "",
        "lng": "",
        "name": "Lombrum",
        "region": "PNG",
        "station_id": "INT_TP015",
        "timezone": "Pacific/Port_Moresby",
        "tz": "PGT"
    },
    {
        "id": 21,
        "lat": -31.5281546,
        "lng": 159.0663333,
        "name": "Lord Howe Island",
        "region": "NSW",
        "station_id": "NSW_TP003",
        "timezone": "Australia/Sydney",
        "tz": "AEDT"
    },
    {
        "id": 50,
        "lat": -38.5409111,
        "lng": 143.9753629,
        "name": "Lorne",
        "region": "VIC",
        "station_id": "VIC_TP002",
        "timezone": "Australia/Melbourne",
        "tz": "AEDT"
    },
    {
        "id": 545,
        "lat": -41.0681826,
        "lng": 146.8045938,
        "name": "Low Head",
        "region": "TAS",
        "station_id": "TAS_TP004",
        "timezone": "Australia/Hobart",
        "tz": "AEDT"
    },
    {
        "id": 202,
        "lat": "",
        "lng": "",
        "name": "Low I.",
        "region": "QLD",
        "station_id": "QLD_TP213",
        "timezone": "Australia/Brisbane",
        "tz": "AEST"
    },
    {
        "id": 203,
        "lat": -15.0950422,
        "lng": 145.3793463,
        "name": "Low Wooded I.",
        "region": "QLD",
        "station_id": "QLD_TP215",
        "timezone": "Australia/Brisbane",
        "tz": "AEST"
    },
    {
        "id": 608,
        "lat": "",
        "lng": "",
        "name": "Loxton Shoal",
        "region": "NT",
        "station_id": "NT_TP037",
        "timezone": "Australia/Darwin",
        "tz": "ACST"
    },
    {
        "id": 217,
        "lat": -18.5279457,
        "lng": 146.3340953,
        "name": "Lucinda (Offshore)",
        "region": "QLD",
        "station_id": "QLD_TP017",
        "timezone": "Australia/Brisbane",
        "tz": "AEST"
    },
    {
        "id": 677,
        "lat": -15.5064326,
        "lng": 167.2002745,
        "name": "Luganville Wharf",
        "region": "VUT",
        "station_id": "INT_TP049",
        "timezone": "Pacific/Efate",
        "tz": "VUT"
    },
    {
        "id": 609,
        "lat": "",
        "lng": "",
        "name": "Lynedoch Bank",
        "region": "NT",
        "station_id": "NT_TP023",
        "timezone": "Australia/Darwin",
        "tz": "ACST"
    },
    {
        "id": 363,
        "lat": 50.48995016510005,
        "lng": -4.394361457846129,
        "name": "Lynher Bank",
        "region": "WA",
        "station_id": "WA_TP137",
        "timezone": "Australia/Perth",
        "tz": "AWST"
    },
    {
        "id": 546,
        "lat": -43.6522707,
        "lng": 146.2769813,
        "name": "Maatsuyker I.",
        "region": "TAS",
        "station_id": "TAS_TP040",
        "timezone": "Australia/Hobart",
        "tz": "AEDT"
    },
    {
        "id": 156,
        "lat": -9.9553248,
        "lng": 142.1832671,
        "name": "Mabuiag I. Barge",
        "region": "QLD",
        "station_id": "QLD_TP262",
        "timezone": "Australia/Brisbane",
        "tz": "AEST"
    },
    {
        "id": 264,
        "lat": -21.1043054,
        "lng": 149.2276362,
        "name": "Mackay Outer Harbour",
        "region": "QLD",
        "station_id": "QLD_TP018",
        "timezone": "Australia/Brisbane",
        "tz": "AEST"
    },
    {
        "id": 364,
        "lat": 44.90806,
        "lng": -122.88611,
        "name": "Macleay I.",
        "region": "WA",
        "station_id": "WA_TP124",
        "timezone": "Australia/Perth",
        "tz": "AWST"
    },
    {
        "id": 115,
        "lat": -11.4,
        "lng": 143.7833333,
        "name": "Maclennan Cay",
        "region": "QLD",
        "station_id": "QLD_TP241",
        "timezone": "Australia/Brisbane",
        "tz": "AEST"
    },
    {
        "id": 547,
        "lat": -54.6278418,
        "lng": 158.8616037,
        "name": "Macquarie Island",
        "region": "TAS",
        "station_id": "TAS_TP014",
        "timezone": "Australia/Hobart",
        "tz": "AEDT"
    },
    {
        "id": 678,
        "lat": "",
        "lng": "",
        "name": "Madang (Nagada Harbour)",
        "region": "PNG",
        "station_id": "INT_TP014",
        "timezone": "Pacific/Port_Moresby",
        "tz": "PGT"
    },
    {
        "id": 265,
        "lat": 37.283593320346064,
        "lng": -121.82881378445136,
        "name": "Magdelaine Cays",
        "region": "QLD",
        "station_id": "QLD_TP284",
        "timezone": "Australia/Brisbane",
        "tz": "AEST"
    },
    {
        "id": 679,
        "lat": 7.0908319,
        "lng": 171.3801845,
        "name": "Majuro",
        "region": "MHL",
        "station_id": "INT_TP006",
        "timezone": "Pacific/Majuro",
        "tz": "MHT"
    },
    {
        "id": 680,
        "lat": 7.326388899999999,
        "lng": 134.4583333,
        "name": "Malakal Harbour",
        "region": "PALAU",
        "station_id": "INT_TP009",
        "timezone": "Pacific/Palau",
        "tz": "PWT"
    },
    {
        "id": 610,
        "lat": -12.1834676,
        "lng": 136.1374541,
        "name": "Mallison I.",
        "region": "NT",
        "station_id": "NT_TP090",
        "timezone": "Australia/Darwin",
        "tz": "ACST"
    },
    {
        "id": 442,
        "lat": -32.5326654,
        "lng": 115.7212125,
        "name": "Mandurah",
        "region": "WA",
        "station_id": "WA_TP091",
        "timezone": "Australia/Perth",
        "tz": "AWST"
    },
    {
        "id": 365,
        "lat": -14.4051109,
        "lng": 124.9795988,
        "name": "Maret Island",
        "region": "WA",
        "station_id": "WA_TP054",
        "timezone": "Australia/Perth",
        "tz": "AWST"
    },
    {
        "id": 681,
        "lat": 37.4028641,
        "lng": -121.9971301,
        "name": "Margarida",
        "region": "PNG",
        "station_id": "INT_TP040",
        "timezone": "Pacific/Port_Moresby",
        "tz": "PGT"
    },
    {
        "id": 266,
        "lat": -19.1666667,
        "lng": 152.2833333,
        "name": "Marion Reef",
        "region": "QLD",
        "station_id": "QLD_TP281",
        "timezone": "Australia/Brisbane",
        "tz": "AEST"
    },
    {
        "id": 267,
        "lat": 37.5870013,
        "lng": -122.0006174,
        "name": "Marquis I.",
        "region": "QLD",
        "station_id": "QLD_TP172",
        "timezone": "Australia/Brisbane",
        "tz": "AEST"
    },
    {
        "id": 443,
        "lat": "",
        "lng": "",
        "name": "Mary Ann Haven",
        "region": "WA",
        "station_id": "WA_TP085",
        "timezone": "Australia/Perth",
        "tz": "AWST"
    },
    {
        "id": 399,
        "lat": 37.444747,
        "lng": -87.144413,
        "name": "Mawby Island",
        "region": "WA",
        "station_id": "WA_TP055",
        "timezone": "Australia/Perth",
        "tz": "AWST"
    },
    {
        "id": 710,
        "lat": 43.07217,
        "lng": -89.381892,
        "name": "Mawson",
        "region": "TAS",
        "station_id": "TAS_TP012",
        "timezone": "Australia/Hobart",
        "tz": "AEDT"
    },
    {
        "id": 268,
        "lat": "",
        "lng": "",
        "name": "Mcewin Islet",
        "region": "QLD",
        "station_id": "QLD_TP082",
        "timezone": "Australia/Brisbane",
        "tz": "AEST"
    },
    {
        "id": 157,
        "lat": "",
        "lng": "",
        "name": "Mcsweeny Reef",
        "region": "QLD",
        "station_id": "QLD_TP235",
        "timezone": "Australia/Brisbane",
        "tz": "AEST"
    },
    {
        "id": 611,
        "lat": "",
        "lng": "",
        "name": "Medina Inlet South",
        "region": "NT",
        "station_id": "NT_TP044",
        "timezone": "Australia/Darwin",
        "tz": "ACST"
    },
    {
        "id": 158,
        "lat": "",
        "lng": "",
        "name": "Meer I. Barge",
        "region": "QLD",
        "station_id": "QLD_TP276",
        "timezone": "Australia/Brisbane",
        "tz": "AEST"
    },
    {
        "id": 51,
        "lat": -37.8150309,
        "lng": 144.9663466,
        "name": "Melbourne (Williamstown)",
        "region": "VIC",
        "station_id": "VIC_TP003",
        "timezone": "Australia/Melbourne",
        "tz": "AEDT"
    },
    {
        "id": 269,
        "lat": -17.3932817,
        "lng": 155.8567183,
        "name": "Mellish Reef",
        "region": "QLD",
        "station_id": "QLD_TP282",
        "timezone": "Australia/Brisbane",
        "tz": "AEST"
    },
    {
        "id": 612,
        "lat": -12.235777,
        "lng": 136.6819846,
        "name": "Melville Bay (Gove Harbour)",
        "region": "NT",
        "station_id": "NT_TP002",
        "timezone": "Australia/Darwin",
        "tz": "ACST"
    },
    {
        "id": 400,
        "lat": 26.5535908,
        "lng": -77.0535139,
        "name": "Mermaid Reef",
        "region": "WA",
        "station_id": "WA_TP118",
        "timezone": "Australia/Perth",
        "tz": "AWST"
    },
    {
        "id": 159,
        "lat": 54.4957628,
        "lng": 8.8775496,
        "name": "Merrie England Sh.",
        "region": "QLD",
        "station_id": "QLD_TP272",
        "timezone": "Australia/Brisbane",
        "tz": "AEST"
    },
    {
        "id": 218,
        "lat": 35.305660844353234,
        "lng": -120.82272060018708,
        "name": "Michaelmas Cay",
        "region": "QLD",
        "station_id": "QLD_TP083",
        "timezone": "Australia/Brisbane",
        "tz": "AEST"
    },
    {
        "id": 311,
        "lat": -23.1783958,
        "lng": 150.9481887,
        "name": "Middle I., Keppel I.",
        "region": "QLD",
        "station_id": "QLD_TP165",
        "timezone": "Australia/Brisbane",
        "tz": "AEST"
    },
    {
        "id": 270,
        "lat": "",
        "lng": "",
        "name": "Middle I., Percy I.",
        "region": "QLD",
        "station_id": "QLD_TP176",
        "timezone": "Australia/Brisbane",
        "tz": "AEST"
    },
    {
        "id": 613,
        "lat": -13.8538256,
        "lng": 136.4151414,
        "name": "Milner Bay (Groote Eylandt)",
        "region": "NT",
        "station_id": "NT_TP003",
        "timezone": "Australia/Darwin",
        "tz": "ACST"
    },
    {
        "id": 271,
        "lat": 56.2821904,
        "lng": 12.5021241,
        "name": "Molle I.",
        "region": "QLD",
        "station_id": "QLD_TP187",
        "timezone": "Australia/Brisbane",
        "tz": "AEST"
    },
    {
        "id": 614,
        "lat": "",
        "lng": "",
        "name": "Money Shoal",
        "region": "NT",
        "station_id": "NT_TP024",
        "timezone": "Australia/Darwin",
        "tz": "ACST"
    },
    {
        "id": 444,
        "lat": -25.7946063,
        "lng": 113.7191026,
        "name": "Monkey Mia",
        "region": "WA",
        "station_id": "WA_TP104",
        "timezone": "Australia/Perth",
        "tz": "AWST"
    },
    {
        "id": 312,
        "lat": -26.6817518,
        "lng": 153.1189922,
        "name": "Mooloolaba",
        "region": "QLD",
        "station_id": "QLD_TP019",
        "timezone": "Australia/Brisbane",
        "tz": "AEST"
    },
    {
        "id": 52,
        "lat": -38.2211796,
        "lng": 145.0450987,
        "name": "Mornington",
        "region": "VIC",
        "station_id": "VIC_TP022",
        "timezone": "Australia/Melbourne",
        "tz": "AEDT"
    },
    {
        "id": 88,
        "lat": -16.6635689,
        "lng": 139.1801163,
        "name": "Mornington Island",
        "region": "QLD",
        "station_id": "QLD_TP084",
        "timezone": "Australia/Brisbane",
        "tz": "AEST"
    },
    {
        "id": 116,
        "lat": 43.7517112,
        "lng": -65.8977303,
        "name": "Morris Island",
        "region": "QLD",
        "station_id": "QLD_TP085",
        "timezone": "Australia/Brisbane",
        "tz": "AEST"
    },
    {
        "id": 22,
        "lat": -35.9118168,
        "lng": 150.0780438,
        "name": "Moruya",
        "region": "NSW",
        "station_id": "NSW_TP030",
        "timezone": "Australia/Sydney",
        "tz": "AEDT"
    },
    {
        "id": 219,
        "lat": -17.5976095,
        "lng": 146.119406,
        "name": "Mourilyan Harbour",
        "region": "QLD",
        "station_id": "QLD_TP020",
        "timezone": "Australia/Brisbane",
        "tz": "AEST"
    },
    {
        "id": 272,
        "lat": 37.41589800360848,
        "lng": -122.11531218508983,
        "name": "Mumford I.",
        "region": "QLD",
        "station_id": "QLD_TP170",
        "timezone": "Australia/Brisbane",
        "tz": "AEST"
    },
    {
        "id": 615,
        "lat": "",
        "lng": "",
        "name": "Munkunuwa",
        "region": "NT",
        "station_id": "NT_TP058",
        "timezone": "Australia/Darwin",
        "tz": "ACST"
    },
    {
        "id": 117,
        "lat": "",
        "lng": "",
        "name": "Munro Reef",
        "region": "QLD",
        "station_id": "QLD_TP222",
        "timezone": "Australia/Brisbane",
        "tz": "AEST"
    },
    {
        "id": 160,
        "lat": "",
        "lng": "",
        "name": "Mutacomal Reef",
        "region": "QLD",
        "station_id": "QLD_TP273",
        "timezone": "Australia/Brisbane",
        "tz": "AEST"
    },
    {
        "id": 366,
        "lat": -13.9786342,
        "lng": 126.6066471,
        "name": "Napier Broome Bay",
        "region": "WA",
        "station_id": "WA_TP080",
        "timezone": "Australia/Perth",
        "tz": "AWST"
    },
    {
        "id": 161,
        "lat": "",
        "lng": "",
        "name": "Nardana Patches",
        "region": "QLD",
        "station_id": "QLD_TP029",
        "timezone": "Australia/Brisbane",
        "tz": "AEST"
    },
    {
        "id": 89,
        "lat": 30.5132944,
        "lng": -81.4389777,
        "name": "Nassau River Offshore",
        "region": "QLD",
        "station_id": "QLD_TP086",
        "timezone": "Australia/Brisbane",
        "tz": "AEST"
    },
    {
        "id": 222,
        "lat": -17.52407993363343,
        "lng": 146.5168258082493,
        "name": "Nathan Reef",
        "region": "QLD",
        "station_id": "QLD_TP205",
        "timezone": "Australia/Brisbane",
        "tz": "AEST"
    },
    {
        "id": 616,
        "lat": "",
        "lng": "",
        "name": "Native Point",
        "region": "NT",
        "station_id": "NT_TP053",
        "timezone": "Australia/Darwin",
        "tz": "ACST"
    },
    {
        "id": 682,
        "lat": -17.676367,
        "lng": 178.5788764,
        "name": "Natovi Wharf",
        "region": "FJI",
        "station_id": "INT_TP052",
        "timezone": "Pacific/Fiji",
        "tz": "FJST"
    },
    {
        "id": 684,
        "lat": -18.6476779,
        "lng": -173.9836854,
        "name": "Neiafu",
        "region": "TON",
        "station_id": "INT_TP053",
        "timezone": "Pacific/Tongatapu",
        "tz": "TOT"
    },
    {
        "id": 313,
        "lat": -28.0167949,
        "lng": 153.4000646,
        "name": "Nerang R. (Bundall)",
        "region": "QLD",
        "station_id": "QLD_TP145",
        "timezone": "Australia/Brisbane",
        "tz": "AEST"
    },
    {
        "id": 617,
        "lat": -39.6694247,
        "lng": 143.8286623,
        "name": "New Year I. - W",
        "region": "NT",
        "station_id": "NT_TP085",
        "timezone": "Australia/Darwin",
        "tz": "ACST"
    },
    {
        "id": 618,
        "lat": "",
        "lng": "",
        "name": "Newby Shoal",
        "region": "NT",
        "station_id": "NT_TP067",
        "timezone": "Australia/Darwin",
        "tz": "ACST"
    },
    {
        "id": 23,
        "lat": 54.9787632,
        "lng": -1.6094462,
        "name": "Newcastle",
        "region": "NSW",
        "station_id": "NSW_TP004",
        "timezone": "Australia/Sydney",
        "tz": "AEDT"
    },
    {
        "id": 118,
        "lat": -13.1821156,
        "lng": 143.5765991,
        "name": "Night Island",
        "region": "QLD",
        "station_id": "QLD_TP087",
        "timezone": "Australia/Brisbane",
        "tz": "AEST"
    },